{"source": "last-all-airbox by IIS-NRL", "c_d0_source": "AS-IISNRL", "num_of_records": 927, "feeds": [{"time": "06:20:02", "SiteName": "\u81fa\u5357\u5e02\u5b89\u5357\u5340\u9752\u8349\u570b\u5c0f", "app": "AirBox", "area": "tainan", "date": "2024-10-16", "gps_alt": 2.0, "gps_fix": 1.0, "gps_lat": 23.076875, "gps_lon": 120.116702, "gps_num": 9.0, "name": "\u81fa\u5357\u5e02\u5b89\u5357\u5340\u9752\u8349\u570b\u5c0f", "s_d0": 0.0, "s_d1": 0.0, "s_d2": 0.0, "s_h0": 100.0, "s_t0": 28.5, "timestamp": "2024-10-16T06:20:02Z", "device_id": "E6FB7EF1D181962685502F09E12B40DBF0B0919E35830E9C019660873ED03715", "c_d0": "N/A", "c_d0_method": "N/A"}, {"time": "06:22:44", "SiteAddr": "N/A", "SiteName": "\u65b0\u5317\u5e02\u80b2\u5fb7\u570b\u5c0f(2018)", "app": "AirBox", "area": "new_taipei", "date": "2024-10-16", "gps_alt": 2.0, "gps_fix": 1.0, "gps_lat": 24.97, "gps_lon": 121.392, "gps_num": 9.0, "name": "\u65b0\u5317\u5e02\u80b2\u5fb7\u570b\u5c0f", "s_d0": 0.0, "s_d1": 1.0, "s_d2": 0.0, "s_h0": 100.0, "s_t0": 29.0, "timestamp": "2024-10-16T06:22:44Z", "device_id": "74DA38F7C64C", "c_d0": "N/A", "c_d0_method": "N/A"}, {"time": "06:26:52", "SiteAddr": "\u81fa\u5317\u5e02\u4e2d\u5c71\u5340\u8208\u4e9e\u91cc\u5409\u6797\u8def15\u865f", "SiteName": "\u5e02\u7acb\u9577\u5b89\u570b\u5c0f(2018)", "app": "AirBox", "area": "taipei", "date": "2024-10-16", "gps_alt": 2.0, "gps_fix": 1.0, "gps_lat": 25.045, "gps_lon": 121.533, "gps_num": 9.0, "name": "\u53f0\u5317\u5e02\u4e2d\u5c71\u5340\u9577\u5b89\u570b\u5c0f2018", "s_d0": 10.0, "s_d1": 12.0, "s_d2": 6.0, "s_h0": 94.0, "s_t0": 27.12, "timestamp": "2024-10-16T06:26:52Z", "device_id": "74DA38F7C648", "c_d0": "N/A", "c_d0_method": "N/A"}, {"time": "06:23:03", "SiteAddr": "N/A", "SiteName": "\u65b0\u5317\u5e02\u6587\u6797\u570b\u5c0f(2018)", "app": "AirBox", "area": "new_taipei", "date": "2024-10-16", "gps_alt": 2.0, "gps_fix": 1.0, "gps_lat": 24.998, "gps_lon": 121.425, "gps_num": 9.0, "name": "\u65b0\u5317\u5e02\u7acb\u6587\u6797\u570b\u5c0f", "s_d0": 10.0, "s_d1": 11.0, "s_d2": 5.0, "s_h0": 100.0, "s_t0": 27.5, "timestamp": "2024-10-16T06:23:03Z", "device_id": "74DA38F7C63C", "c_d0": "N/A", "c_d0_method": "N/A"}, {"time": "06:22:54", "SiteAddr": "N/A", "SiteName": "\u65b0\u5317\u5e02\u4e8c\u6a4b\u570b\u5c0f(2018)", "app": "AirBox", "area": "new_taipei", "date": "2024-10-16", "gps_alt": 2.0, "gps_fix": 1.0, "gps_lat": 24.941, "gps_lon": 121.336, "gps_num": 9.0, "name": "\u65b0\u5317\u5e02\u4e8c\u6a4b\u570b\u5c0f", "s_d0": 3.0, "s_d1": 5.0, "s_d2": 1.0, "s_h0": 60.0, "s_t0": 26.12, "timestamp": "2024-10-16T06:22:54Z", "device_id": "74DA38F7C634", "c_d0": "N/A", "c_d0_method": "N/A"}, {"time": "06:21:13", "SiteAddr": "\u81fa\u5317\u5e02\u4fe1\u7fa9\u5340\u677e\u52e4\u885760\u865f", "SiteName": "\u5e02\u7acb\u4fe1\u7fa9\u570b\u5c0f(2018)", "app": "AirBox", "area": "taipei", "date": "2024-10-16", "gps_alt": 2.0, "gps_fix": 1.0, "gps_lat": 25.031, "gps_lon": 121.563, "gps_num": 9.0, "name": "\u53f0\u5317\u5e02\u4fe1\u7fa9\u5340\u4fe1\u7fa9\u570b\u5c0f2018", "s_d0": 12.0, "s_d1": 14.0, "s_d2": 7.0, "s_h0": 100.0, "s_t0": 26.25, "timestamp": "2024-10-16T06:21:13Z", "device_id": "74DA38F7C616", "c_d0": "N/A", "c_d0_method": "N/A"}, {"time": "06:22:01", "SiteAddr": "\u81fa\u5317\u5e02\u677e\u5c71\u5340\u5ef6\u58fd\u8857168\u865f", "SiteName": "\u5e02\u7acb\u5065\u5eb7\u570b\u5c0f(2018)", "app": "AirBox", "area": "taipei", "date": "2024-10-16", "gps_alt": 2.0, "gps_fix": 1.0, "gps_lat": 25.056, "gps_lon": 121.562, "gps_num": 9.0, "name": "\u53f0\u5317\u5e02\u677e\u5c71\u5340\u5065\u5eb7\u570b\u5c0f2018", "s_d0": 9.0, "s_d1": 11.0, "s_d2": 5.0, "s_h0": 100.0, "s_t0": 26.62, "timestamp": "2024-10-16T06:22:01Z", "device_id": "74DA38F7C60C", "c_d0": "N/A", "c_d0_method": "N/A"}, {"time": "06:25:48", "SiteAddr": "\u81fa\u5317\u5e02\u5167\u6e56\u5340\u6e56\u8208\u91cc\u6c11\u6b0a\u6771\u8def6\u6bb545\u865f", "SiteName": "\u5e02\u7acb\u4e09\u6c11\u570b\u4e2d(2018)", "app": "AirBox", "area": "taipei", "date": "2024-10-16", "gps_alt": 2.0, "gps_fix": 1.0, "gps_lat": 25.07, "gps_lon": 121.586, "gps_num": 9.0, "name": "\u4e09\u6c11\u570b\u4e2d", "s_d0": 2.0, "s_d1": 3.0, "s_d2": 1.0, "s_h0": 36.0, "s_t0": 24.37, "timestamp": "2024-10-16T06:25:48Z", "device_id": "74DA38F7C600", "c_d0": "N/A", "c_d0_method": "N/A"}, {"time": "06:23:35", "SiteAddr": "N/A", "SiteName": "\u65b0\u5317\u5e02\u4e5d\u4efd\u570b\u5c0f(2018)", "app": "AirBox", "area": "new_taipei", "date": "2024-10-16", "gps_alt": 2.0, "gps_fix": 1.0, "gps_lat": 25.107, "gps_lon": 121.843, "gps_num": 9.0, "name": "\u65b0\u5317\u5e02\u745e\u82b3\u5340\u4e5d\u4efd\u570b\u5c0f", "s_d0": 8.0, "s_d1": 9.0, "s_d2": 4.0, "s_h0": 100.0, "s_t0": 26.25, "timestamp": "2024-10-16T06:23:35Z", "device_id": "74DA38F7C5E6", "c_d0": "N/A", "c_d0_method": "N/A"}, {"time": "06:21:12", "SiteAddr": "N/A", "SiteName": "\u65b0\u5317\u5e02\u745e\u4ead\u570b\u5c0f(2018)", "app": "AirBox", "area": "new_taipei", "date": "2024-10-16", "gps_alt": 2.0, "gps_fix": 1.0, "gps_lat": 25.102, "gps_lon": 121.777, "gps_num": 9.0, "name": "\u65b0\u5317\u5e02\u745e\u4ead\u570b\u5c0f2", "s_d0": 0.0, "s_d1": 0.0, "s_d2": 0.0, "s_h0": 100.0, "s_t0": 25.5, "timestamp": "2024-10-16T06:21:12Z", "device_id": "74DA38F7C5D0", "c_d0": "N/A", "c_d0_method": "N/A"}, {"time": "06:21:47", "SiteAddr": "N/A", "SiteName": "\u65b0\u5317\u5e02\u6c50\u6b62\u570b\u4e2d(2018)", "app": "AirBox", "area": "new_taipei", "date": "2024-10-16", "gps_alt": 2.0, "gps_fix": 1.0, "gps_lat": 25.066, "gps_lon": 121.656, "gps_num": 9.0, "name": "\u6c50\u6b62\u570b\u4e2d\u7a7a\u6c23\u76d2\u5b502", "s_d0": 13.0, "s_d1": 16.0, "s_d2": 8.0, "s_h0": 100.0, "s_t0": 26.25, "timestamp": "2024-10-16T06:21:47Z", "device_id": "74DA38F7C5CE", "c_d0": "N/A", "c_d0_method": "N/A"}, {"time": "06:26:19", "SiteAddr": "\u81fa\u5317\u5e02\u58eb\u6797\u5340\u798f\u5fb7\u91cc\u4e2d\u6b63\u8def345\u865f", "SiteName": "\u5e02\u7acb\u58eb\u6797\u570b\u4e2d(2018)", "app": "AirBox", "area": "taipei", "date": "2024-10-16", "gps_alt": 2.0, "gps_fix": 1.0, "gps_lat": 25.092, "gps_lon": 121.523, "gps_num": 9.0, "name": "\u53f0\u5317\u5e02\u58eb\u6797\u5340\u58eb\u6797\u570b\u4e2d2018", "s_d0": 10.0, "s_d1": 12.0, "s_d2": 6.0, "s_h0": 100.0, "s_t0": 26.37, "timestamp": "2024-10-16T06:26:19Z", "device_id": "74DA38F7C5BE", "c_d0": "N/A", "c_d0_method": "N/A"}, {"time": "05:39:19", "SiteAddr": "N/A", "SiteName": "\u65b0\u5317\u5e02\u7a4d\u7a57\u570b\u4e2d(2018)", "app": "AirBox", "area": "NA", "date": "2024-10-16", "gps_alt": 2.0, "gps_fix": 1.0, "gps_lat": 25.0, "gps_lon": 121.479, "gps_num": 9.0, "name": "\u65b0\u5317\u5e02\u4e2d\u548c\u5340\u7a4d\u7a57\u570b\u4e2d", "s_d0": 2.0, "s_d1": 2.0, "s_d2": 1.0, "s_h0": 100.0, "s_t0": 27.75, "timestamp": "2024-10-16T05:39:19Z", "device_id": "74DA38F7C5AA", "c_d0": "N/A", "c_d0_method": "N/A"}, {"time": "06:24:21", "SiteAddr": "\u81fa\u5317\u5e02\u5317\u6295\u5340\u5efa\u6c11\u91cc\u660e\u5fb7\u8def50\u865f", "SiteName": "\u5e02\u7acb\u660e\u5fb7\u570b\u4e2d(2018)", "app": "AirBox", "area": "taipei", "date": "2024-10-16", "gps_alt": 2.0, "gps_fix": 1.0, "gps_lat": 25.107, "gps_lon": 121.518, "gps_num": 9.0, "name": "\u81fa\u5317\u5e02\u5317\u6295\u5340\u660e\u5fb7\u570b\u4e2d2018", "s_d0": 5.0, "s_d1": 6.0, "s_d2": 3.0, "s_h0": 100.0, "s_t0": 27.25, "timestamp": "2024-10-16T06:24:21Z", "device_id": "74DA38F7C5A0", "c_d0": "N/A", "c_d0_method": "N/A"}, {"time": "06:26:25", "SiteAddr": "\u81fa\u5317\u5e02\u58eb\u6797\u5340\u798f\u5b89\u91cc\u5ef6\u5e73\u5317\u8def\u4e03\u6bb5250\u865f", "SiteName": "\u5e02\u7acb\u798f\u5b89\u570b\u4e2d(2018)", "app": "AirBox", "area": "taipei", "date": "2024-10-16", "gps_alt": 2.0, "gps_fix": 1.0, "gps_lat": 25.103, "gps_lon": 121.487, "gps_num": 9.0, "name": "\u53f0\u5317\u5e02\u58eb\u6797\u5340\u798f\u5b89\u570b\u4e2d2018", "s_d0": 10.0, "s_d1": 10.0, "s_d2": 6.0, "s_h0": 94.0, "s_t0": 27.25, "timestamp": "2024-10-16T06:26:25Z", "device_id": "74DA38F7C59C", "c_d0": "N/A", "c_d0_method": "N/A"}, {"time": "06:22:08", "SiteAddr": "N/A", "SiteName": "\u65b0\u5317\u5e02\u91d1\u5c71\u9ad8\u4e2d(2018)", "app": "AirBox", "area": "new_taipei", "date": "2024-10-16", "gps_alt": 2.0, "gps_fix": 1.0, "gps_lat": 25.224, "gps_lon": 121.637, "gps_num": 9.0, "name": "\u65b0\u5317\u5e02\u91d1\u5c71\u9ad8\u4e2d", "s_d0": 0.0, "s_d1": 0.0, "s_d2": 0.0, "s_h0": 0.0, "s_t0": -4.0, "timestamp": "2024-10-16T06:22:08Z", "device_id": "74DA38F7C592", "c_d0": "N/A", "c_d0_method": "N/A"}, {"time": "06:22:24", "SiteAddr": "N/A", "SiteName": "\u65b0\u5317\u5e02\u8c50\u5e74\u570b\u5c0f(2018)", "app": "AirBox", "area": "new_taipei", "date": "2024-10-16", "gps_alt": 2.0, "gps_fix": 1.0, "gps_lat": 25.03, "gps_lon": 121.443, "gps_num": 9.0, "name": "\u65b0\u838a\u5340\u8c50\u5e74\u570b\u5c0f", "s_d0": 6.0, "s_d1": 7.0, "s_d2": 4.0, "s_h0": 100.0, "s_t0": 28.61, "timestamp": "2024-10-16T06:22:24Z", "device_id": "74DA38F7C57C", "c_d0": "N/A", "c_d0_method": "N/A"}, {"time": "06:25:58", "SiteAddr": "N/A", "SiteName": "\u65b0\u5317\u5e02\u4e2d\u89d2\u570b\u5c0f(2018)", "app": "AirBox", "area": "NA", "date": "2024-10-16", "gps_alt": 2.0, "gps_fix": 1.0, "gps_lat": 25.239, "gps_lon": 121.63, "gps_num": 9.0, "name": "\u65b0\u5317\u5e02\u4e2d\u89d2\u570b\u5c0f", "s_d0": 0.0, "s_d1": 0.0, "s_d2": 0.0, "s_h0": 100.0, "s_t0": 25.75, "timestamp": "2024-10-16T06:25:58Z", "device_id": "74DA38F7C570", "c_d0": "N/A", "c_d0_method": "N/A"}, {"time": "06:23:53", "SiteAddr": "N/A", "SiteName": "\u65b0\u5317\u5e02\u69ae\u5bcc\u570b\u5c0f(2018)", "app": "AirBox", "area": "new_taipei", "date": "2024-10-16", "gps_alt": 2.0, "gps_fix": 1.0, "gps_lat": 25.051, "gps_lon": 121.448, "gps_num": 9.0, "name": "\u65b0\u5317\u5e02\u69ae\u5bcc\u570b\u5c0f2", "s_d0": 0.0, "s_d1": 0.0, "s_d2": 0.0, "s_h0": 100.0, "s_t0": 28.0, "timestamp": "2024-10-16T06:23:53Z", "device_id": "74DA38F7C566", "c_d0": "N/A", "c_d0_method": "N/A"}, {"time": "06:23:43", "SiteAddr": "N/A", "SiteName": "\u65b0\u5317\u5e02\u9577\u5b89\u570b\u5c0f(2018)", "app": "AirBox", "area": "new_taipei", "date": "2024-10-16", "gps_alt": 2.0, "gps_fix": 1.0, "gps_lat": 25.079, "gps_lon": 121.671, "gps_num": 9.0, "name": "\u9577\u5b89\u570b\u5c0f", "s_d0": 4.0, "s_d1": 5.0, "s_d2": 2.0, "s_h0": 100.0, "s_t0": 25.37, "timestamp": "2024-10-16T06:23:43Z", "device_id": "74DA38F7C560", "c_d0": "N/A", "c_d0_method": "N/A"}, {"time": "06:25:33", "SiteAddr": "N/A", "SiteName": "\u65b0\u5317\u5e02\u6c50\u6b62\u570b\u5c0f(2018)", "app": "AirBox", "area": "new_taipei", "date": "2024-10-16", "gps_alt": 2.0, "gps_fix": 1.0, "gps_lat": 25.066, "gps_lon": 121.655, "gps_num": 9.0, "name": "\u65b0\u5317\u5e02\u6c50\u6b62\u570b\u5c0f", "s_d0": 14.0, "s_d1": 16.0, "s_d2": 8.0, "s_h0": 100.0, "s_t0": 26.75, "timestamp": "2024-10-16T06:25:33Z", "device_id": "74DA38F7C55C", "c_d0": "N/A", "c_d0_method": "N/A"}, {"time": "06:25:02", "SiteAddr": "N/A", "SiteName": "\u65b0\u5317\u5e02\u982d\u524d\u570b\u5c0f(2018)", "app": "AirBox", "area": "new_taipei", "date": "2024-10-16", "gps_alt": 2.0, "gps_fix": 1.0, "gps_lat": 25.053, "gps_lon": 121.465, "gps_num": 9.0, "name": "\u65b0\u5317\u5e02\u65b0\u838a\u5340\u982d\u524d\u570b\u5c0f", "s_d0": 9.0, "s_d1": 10.0, "s_d2": 6.0, "s_h0": 100.0, "s_t0": 28.61, "timestamp": "2024-10-16T06:25:02Z", "device_id": "74DA38F7C556", "c_d0": "N/A", "c_d0_method": "N/A"}, {"time": "06:22:33", "SiteAddr": "N/A", "SiteName": "\u65b0\u5317\u5e02\u745e\u82b3\u9ad8\u5de5(2018)", "app": "AirBox", "area": "new_taipei", "date": "2024-10-16", "gps_alt": 2.0, "gps_fix": 1.0, "gps_lat": 25.11, "gps_lon": 121.804, "gps_num": 9.0, "name": "\u745e\u82b3\u9ad8\u5de5\u8b66\u885b\u5ba4", "s_d0": 0.0, "s_d1": 0.0, "s_d2": 0.0, "s_h0": 100.0, "s_t0": 25.25, "timestamp": "2024-10-16T06:22:33Z", "device_id": "74DA38F7C53C", "c_d0": "N/A", "c_d0_method": "N/A"}, {"time": "06:25:47", "SiteAddr": "N/A", "SiteName": "\u65b0\u5317\u5e02\u6a1f\u6a39\u570b\u5c0f(2018)", "app": "AirBox", "area": "new_taipei", "date": "2024-10-16", "gps_alt": 2.0, "gps_fix": 1.0, "gps_lat": 25.067, "gps_lon": 121.641, "gps_num": 9.0, "name": "\u65b0\u5317\u5e02\u6c50\u6b62\u5340\u6a1f\u6a39\u570b\u6c11\u5c0f\u5b78", "s_d0": 0.0, "s_d1": 0.0, "s_d2": 0.0, "s_h0": 100.0, "s_t0": 25.0, "timestamp": "2024-10-16T06:25:47Z", "device_id": "74DA38F7C53A", "c_d0": "N/A", "c_d0_method": "N/A"}, {"time": "06:22:35", "SiteAddr": "N/A", "SiteName": "\u65b0\u5317\u5e02\u5149\u8208\u570b\u5c0f(2018)", "app": "AirBox", "area": "new_taipei", "date": "2024-10-16", "gps_alt": 2.0, "gps_fix": 1.0, "gps_lat": 25.059, "gps_lon": 121.499, "gps_num": 9.0, "name": "\u65b0\u5317\u5e02\u4e09\u91cd\u5340\u5149\u8208\u570b\u5c0f", "s_d0": 10.0, "s_d1": 12.0, "s_d2": 5.0, "s_h0": 100.0, "s_t0": 26.62, "timestamp": "2024-10-16T06:22:35Z", "device_id": "74DA38F7C532", "c_d0": "N/A", "c_d0_method": "N/A"}, {"time": "06:26:20", "SiteAddr": "N/A", "SiteName": "\u65b0\u5317\u5e02\u4e8c\u91cd\u570b\u5c0f(2018)", "app": "AirBox", "area": "new_taipei", "date": "2024-10-16", "gps_alt": 2.0, "gps_fix": 1.0, "gps_lat": 25.065, "gps_lon": 121.478, "gps_num": 9.0, "name": "\u65b0\u5317\u5e02\u4e09\u91cd\u5340\u4e8c\u91cd\u570b\u5c0f", "s_d0": 6.0, "s_d1": 7.0, "s_d2": 4.0, "s_h0": 100.0, "s_t0": 27.37, "timestamp": "2024-10-16T06:26:20Z", "device_id": "74DA38F7C52A", "c_d0": "N/A", "c_d0_method": "N/A"}, {"time": "06:26:32", "SiteAddr": "\u81fa\u5317\u5e02\u6587\u5c71\u5340\u8208\u671b\u91cc\u798f\u8208\u8def2\u865f", "SiteName": "\u5e02\u7acb\u8208\u9686\u570b\u5c0f(2018)", "app": "AirBox", "area": "taipei", "date": "2024-10-16", "gps_alt": 2.0, "gps_fix": 1.0, "gps_lat": 25.002, "gps_lon": 121.552, "gps_num": 9.0, "name": "\u53f0\u5317\u5e02\u6587\u5c71\u5340\u8208\u9686\u570b\u5c0f2018", "s_d0": 8.0, "s_d1": 9.0, "s_d2": 5.0, "s_h0": 100.0, "s_t0": 27.5, "timestamp": "2024-10-16T06:26:32Z", "device_id": "74DA38F7C524", "c_d0": "N/A", "c_d0_method": "N/A"}, {"time": "05:51:04", "SiteAddr": "\u81fa\u5317\u5e02\u5927\u540c\u5340\u9577\u5b89\u897f\u8def37\u4e4b1\u865f", "SiteName": "\u5e02\u7acb\u5efa\u6210\u570b\u4e2d(2018)", "app": "AirBox", "area": "taipei", "date": "2024-10-16", "gps_alt": 2.0, "gps_fix": 1.0, "gps_lat": 25.051, "gps_lon": 121.518, "gps_num": 9.0, "name": "\u81fa\u5317\u5e02\u5927\u540c\u5340\u5efa\u6210\u570b\u4e2d2018", "s_d0": 9.0, "s_d1": 12.0, "s_d2": 6.0, "s_h0": 100.0, "s_t0": 27.25, "timestamp": "2024-10-16T05:51:04Z", "device_id": "74DA38F7C514", "c_d0": "N/A", "c_d0_method": "N/A"}, {"time": "06:26:37", "SiteAddr": "\u81fa\u5317\u5e02\u5927\u540c\u5340\u7389\u6cc9\u91cc\u897f\u5be7\u5317\u8def32\u865f", "SiteName": "\u5e02\u7acb\u5fe0\u5b5d\u570b\u4e2d(2018)", "app": "AirBox", "area": "taipei", "date": "2024-10-16", "gps_alt": 2.0, "gps_fix": 1.0, "gps_lat": 25.051, "gps_lon": 121.507, "gps_num": 9.0, "name": "\u81fa\u5317\u5e02\u5927\u540c\u5340\u5fe0\u5b5d\u570b\u4e2d2018", "s_d0": 16.0, "s_d1": 17.0, "s_d2": 10.0, "s_h0": 100.0, "s_t0": 26.75, "timestamp": "2024-10-16T06:26:37Z", "device_id": "74DA38F7C512", "c_d0": "N/A", "c_d0_method": "N/A"}, {"time": "06:27:15", "SiteAddr": "\u81fa\u5317\u5e02\u6587\u5c71\u5340\u666f\u83ef\u91cc\u666f\u8208\u8def46\u5df72\u865f", "SiteName": "\u5e02\u7acb\u666f\u8208\u570b\u4e2d(2018)", "app": "AirBox", "area": "taipei", "date": "2024-10-16", "gps_alt": 2.0, "gps_fix": 1.0, "gps_lat": 24.996, "gps_lon": 121.544, "gps_num": 9.0, "name": "\u53f0\u5317\u5e02\u6587\u5c71\u5340\u666f\u8208\u570b\u4e2d2018", "s_d0": 8.0, "s_d1": 8.0, "s_d2": 5.0, "s_h0": 100.0, "s_t0": 28.25, "timestamp": "2024-10-16T06:27:15Z", "device_id": "74DA38F7C506", "c_d0": "N/A", "c_d0_method": "N/A"}, {"time": "06:25:20", "SiteAddr": "N/A", "SiteName": "\u65b0\u5317\u5e02\u4e2d\u548c\u5e7c\u5152\u5712(2018)", "app": "AirBox", "area": "new_taipei", "date": "2024-10-16", "gps_alt": 2.0, "gps_fix": 1.0, "gps_lat": 24.989, "gps_lon": 121.506, "gps_num": 9.0, "name": "\u4e2d\u548c\u5e7c\u5152\u5712", "s_d0": 0.0, "s_d1": 0.0, "s_d2": 0.0, "s_h0": 100.0, "s_t0": 27.62, "timestamp": "2024-10-16T06:25:20Z", "device_id": "74DA38F7C4D8", "c_d0": "N/A", "c_d0_method": "N/A"}, {"time": "06:21:27", "SiteAddr": "N/A", "SiteName": "\u65b0\u5317\u5e02\u5fa9\u8208\u570b\u5c0f(2018)", "app": "AirBox", "area": "new_taipei", "date": "2024-10-16", "gps_alt": 2.0, "gps_fix": 1.0, "gps_lat": 25.062, "gps_lon": 121.451, "gps_num": 9.0, "name": "\u65b0\u5317\u5e02\u5fa9\u8208\u570b\u5c0f", "s_d0": 6.0, "s_d1": 8.0, "s_d2": 3.0, "s_h0": 100.0, "s_t0": 27.75, "timestamp": "2024-10-16T06:21:27Z", "device_id": "74DA38F7C4CC", "c_d0": "N/A", "c_d0_method": "N/A"}, {"time": "06:24:10", "SiteAddr": "N/A", "SiteName": "\u65b0\u5317\u5e02\u9f3b\u982d\u570b\u5c0f(2018)", "app": "AirBox", "area": "new_taipei", "date": "2024-10-16", "gps_alt": 2.0, "gps_fix": 1.0, "gps_lat": 25.12, "gps_lon": 121.919, "gps_num": 9.0, "name": "\u65b0\u5317\u5e02\u9f3b\u982d\u570b\u5c0f", "s_d0": 9.0, "s_d1": 11.0, "s_d2": 5.0, "s_h0": 72.0, "s_t0": 23.87, "timestamp": "2024-10-16T06:24:10Z", "device_id": "74DA38F7C4C4", "c_d0": "N/A", "c_d0_method": "N/A"}, {"time": "06:25:15", "SiteAddr": "N/A", "SiteName": "\u65b0\u5317\u5e02\u4e2d\u6b63\u570b\u4e2d(2018)", "app": "AirBox", "area": "new_taipei", "date": "2024-10-16", "gps_alt": 2.0, "gps_fix": 1.0, "gps_lat": 24.983, "gps_lon": 121.456, "gps_num": 9.0, "name": "\u65b0\u5317\u5e02\u7acb\u4e2d\u6b63\u570b\u4e2d", "s_d0": 12.0, "s_d1": 13.0, "s_d2": 8.0, "s_h0": 0.0, "s_t0": -4.0, "timestamp": "2024-10-16T06:25:15Z", "device_id": "74DA38F7C49E", "c_d0": "N/A", "c_d0_method": "N/A"}, {"time": "06:26:05", "SiteAddr": "N/A", "SiteName": "\u65b0\u5317\u5e02\u540c\u69ae\u570b\u5c0f(2018)", "app": "AirBox", "area": "new_taipei", "date": "2024-10-16", "gps_alt": 2.0, "gps_fix": 1.0, "gps_lat": 25.053963, "gps_lon": 121.427681, "gps_num": 9.0, "name": "TRESB212", "s_d0": 9.0, "s_d1": 11.0, "s_d2": 5.0, "s_h0": 100.0, "s_t0": 26.87, "timestamp": "2024-10-16T06:26:05Z", "device_id": "74DA38F7C47E", "c_d0": "N/A", "c_d0_method": "N/A"}, {"time": "06:21:34", "SiteAddr": "N/A", "SiteName": "\u65b0\u5317\u5e02\u4e09\u591a\u570b\u4e2d(2018)", "app": "AirBox", "area": "new_taipei", "date": "2024-10-16", "gps_alt": 2.0, "gps_fix": 1.0, "gps_lat": 25.006, "gps_lon": 121.413, "gps_num": 9.0, "name": "\u65b0\u5317\u5e02\u7acb\u4e09\u591a\u570b\u6c11\u4e2d\u5b78", "s_d0": 0.0, "s_d1": 1.0, "s_d2": 0.0, "s_h0": 100.0, "s_t0": 28.75, "timestamp": "2024-10-16T06:21:34Z", "device_id": "74DA38F7C464", "c_d0": "N/A", "c_d0_method": "N/A"}, {"time": "06:24:26", "SiteAddr": "N/A", "SiteName": "\u65b0\u5317\u5e02\u9054\u89c0\u570b\u4e2d(2018)", "app": "AirBox", "area": "new_taipei", "date": "2024-10-16", "gps_alt": 2.0, "gps_fix": 1.0, "gps_lat": 24.953, "gps_lon": 121.5, "gps_num": 9.0, "name": "Dgejh2", "s_d0": 0.0, "s_d1": 0.0, "s_d2": 0.0, "s_h0": 100.0, "s_t0": 25.5, "timestamp": "2024-10-16T06:24:26Z", "device_id": "74DA38F7C442", "c_d0": "N/A", "c_d0_method": "N/A"}, {"time": "06:22:02", "SiteAddr": "N/A", "SiteName": "\u65b0\u5317\u5e02\u5f6d\u798f\u570b\u5c0f(2018)", "app": "AirBox", "area": "new_taipei", "date": "2024-10-16", "gps_alt": 2.0, "gps_fix": 1.0, "gps_lat": 24.981, "gps_lon": 121.423, "gps_num": 9.0, "name": "\u65b0\u5317\u5e02\u5f6d\u798f\u570b\u5c0f", "s_d0": 0.0, "s_d1": 0.0, "s_d2": 0.0, "s_h0": 95.0, "s_t0": 29.0, "timestamp": "2024-10-16T06:22:02Z", "device_id": "74DA38F7C430", "c_d0": "N/A", "c_d0_method": "N/A"}, {"time": "06:21:03", "SiteAddr": "N/A", "SiteName": "\u65b0\u5317\u5e02\u5b89\u5eb7\u9ad8\u4e2d(2018)", "app": "AirBox", "area": "new_taipei", "date": "2024-10-16", "gps_alt": 2.0, "gps_fix": 1.0, "gps_lat": 24.969, "gps_lon": 121.514, "gps_num": 9.0, "name": "\u5b89\u5eb7\u9ad8\u4e2d", "s_d0": 0.0, "s_d1": 0.0, "s_d2": 0.0, "s_h0": 100.0, "s_t0": 27.87, "timestamp": "2024-10-16T06:21:03Z", "device_id": "74DA38F7C42E", "c_d0": "N/A", "c_d0_method": "N/A"}, {"time": "06:25:26", "SiteAddr": "\u81fa\u5317\u5e02\u5927\u540c\u5340\u661f\u660e\u91cc\u592a\u539f\u8def151\u865f", "SiteName": "\u5e02\u7acb\u65e5\u65b0\u570b\u5c0f(2018)", "app": "AirBox", "area": "taipei", "date": "2024-10-16", "gps_alt": 2.0, "gps_fix": 1.0, "gps_lat": 25.054, "gps_lon": 121.517, "gps_num": 9.0, "name": "\u81fa\u5317\u5e02\u5927\u540c\u5340\u65e5\u65b0\u570b\u5c0f2018", "s_d0": 9.0, "s_d1": 9.0, "s_d2": 5.0, "s_h0": 95.0, "s_t0": 27.0, "timestamp": "2024-10-16T06:25:26Z", "device_id": "74DA38F7C41E", "c_d0": "N/A", "c_d0_method": "N/A"}, {"time": "06:24:00", "SiteAddr": "N/A", "SiteName": "\u65b0\u5317\u5e02\u79c0\u5c71\u570b\u5c0f(2018)", "app": "AirBox", "area": "new_taipei", "date": "2024-10-16", "gps_alt": 2.0, "gps_fix": 1.0, "gps_lat": 24.995, "gps_lon": 121.52, "gps_num": 9.0, "name": "\u65b0\u5317\u5e02\u4e2d\u548c\u5340\u79c0\u5c71\u570b\u5c0f", "s_d0": 0.0, "s_d1": 0.0, "s_d2": 0.0, "s_h0": 100.0, "s_t0": 26.37, "timestamp": "2024-10-16T06:24:00Z", "device_id": "74DA38F7C40C", "c_d0": "N/A", "c_d0_method": "N/A"}, {"time": "06:26:48", "SiteAddr": "N/A", "SiteName": "\u65b0\u5317\u5e02\u677f\u6a4b\u5e7c\u5152\u5712(2018)", "app": "AirBox", "area": "new_taipei", "date": "2024-10-16", "gps_alt": 2.0, "gps_fix": 1.0, "gps_lat": 25.02, "gps_lon": 121.453, "gps_num": 9.0, "name": "\u7a7a\u6c23\u76d2\u5b50(\u677f\u5e7c)", "s_d0": 0.0, "s_d1": 0.0, "s_d2": 0.0, "s_h0": 82.0, "s_t0": 26.87, "timestamp": "2024-10-16T06:26:48Z", "device_id": "74DA38F7C3E2", "c_d0": "N/A", "c_d0_method": "N/A"}, {"time": "06:21:14", "SiteAddr": "\u81fa\u5317\u5e02\u6587\u5c71\u5340\u842c\u7965\u91cc\u8208\u9686\u8def1\u6bb568\u865f", "SiteName": "\u5e02\u7acb\u6b66\u529f\u570b\u5c0f(2018)", "app": "AirBox", "area": "taipei", "date": "2024-10-16", "gps_alt": 2.0, "gps_fix": 1.0, "gps_lat": 25.003, "gps_lon": 121.539, "gps_num": 9.0, "name": "\u53f0\u5317\u5e02\u6587\u5c71\u5340\u6b66\u529f\u570b\u5c0f2018", "s_d0": 7.0, "s_d1": 8.0, "s_d2": 6.0, "s_h0": 100.0, "s_t0": 25.62, "timestamp": "2024-10-16T06:21:14Z", "device_id": "74DA38F7C3DC", "c_d0": "N/A", "c_d0_method": "N/A"}, {"time": "06:22:19", "SiteAddr": "\u81fa\u5317\u5e02\u4e2d\u5c71\u5340\u57e4\u982d\u91cc\u5b89\u6771\u885716\u5df72\u865f", "SiteName": "\u5e02\u7acb\u61f7\u751f\u570b\u5c0f(2018)", "app": "AirBox", "area": "taipei", "date": "2024-10-16", "gps_alt": 2.0, "gps_fix": 1.0, "gps_lat": 25.045, "gps_lon": 121.541, "gps_num": 9.0, "name": "\u53f0\u5317\u5e02\u4e2d\u5c71\u5340\u61f7\u751f\u570b\u5c0f2018", "s_d0": 7.0, "s_d1": 9.0, "s_d2": 4.0, "s_h0": 100.0, "s_t0": 28.0, "timestamp": "2024-10-16T06:22:19Z", "device_id": "74DA38F7C3D6", "c_d0": "N/A", "c_d0_method": "N/A"}, {"time": "06:26:10", "SiteAddr": "N/A", "SiteName": "\u65b0\u5317\u5e02\u4ecb\u58fd\u570b\u5c0f(2018)", "app": "AirBox", "area": "new_taipei", "date": "2024-10-16", "gps_alt": 2.0, "gps_fix": 1.0, "gps_lat": 24.929, "gps_lon": 121.378, "gps_num": 9.0, "name": "\u65b0\u5317\u5e02\u4ecb\u58fd\u570b\u5c0f", "s_d0": 2.0, "s_d1": 3.0, "s_d2": 1.0, "s_h0": 74.0, "s_t0": 29.25, "timestamp": "2024-10-16T06:26:10Z", "device_id": "74DA38F7C3B2", "c_d0": "N/A", "c_d0_method": "N/A"}, {"time": "06:24:25", "SiteAddr": "N/A", "SiteName": "\u65b0\u5317\u5e02\u6b66\u6797\u570b\u5c0f(2018)", "app": "AirBox", "area": "new_taipei", "date": "2024-10-16", "gps_alt": 2.0, "gps_fix": 1.0, "gps_lat": 25.002, "gps_lon": 121.414, "gps_num": 9.0, "name": "\u65b0\u5317\u5e02\u6b66\u6797\u570b\u5c0f", "s_d0": 0.0, "s_d1": 0.0, "s_d2": 0.0, "s_h0": 100.0, "s_t0": 27.62, "timestamp": "2024-10-16T06:24:25Z", "device_id": "74DA38F7C39A", "c_d0": "N/A", "c_d0_method": "N/A"}, {"time": "06:24:39", "SiteAddr": "N/A", "SiteName": "\u65b0\u5317\u5e02\u5317\u65b0\u570b\u5c0f(2018)", "app": "AirBox", "area": "new_taipei", "date": "2024-10-16", "gps_alt": 2.0, "gps_fix": 1.0, "gps_lat": 24.974, "gps_lon": 121.544, "gps_num": 9.0, "name": "\u65b0\u5317\u5e02\u65b0\u5e97\u5340\u5317\u65b0\u570b\u5c0f", "s_d0": 8.0, "s_d1": 10.0, "s_d2": 4.0, "s_h0": 100.0, "s_t0": 29.25, "timestamp": "2024-10-16T06:24:39Z", "device_id": "74DA38F7C384", "c_d0": "N/A", "c_d0_method": "N/A"}, {"time": "06:21:42", "SiteAddr": "N/A", "SiteName": "\u65b0\u5317\u5e02\u96d9\u6eaa\u9ad8\u4e2d(2018)", "app": "AirBox", "area": "new_taipei", "date": "2024-10-16", "gps_alt": 2.0, "gps_fix": 1.0, "gps_lat": 25.111, "gps_lon": 121.856, "gps_num": 9.0, "name": "\u65b0\u5317\u5e02\u745e\u82b3\u5340\u74dc\u5c71\u570b\u5c0f", "s_d0": 1.0, "s_d1": 2.0, "s_d2": 0.0, "s_h0": 100.0, "s_t0": 23.75, "timestamp": "2024-10-16T06:21:42Z", "device_id": "74DA38F7C37C", "c_d0": "N/A", "c_d0_method": "N/A"}, {"time": "06:21:46", "SiteAddr": "N/A", "SiteName": "\u65b0\u5317\u5e02\u6c38\u548c\u570b\u5c0f(2018)", "app": "AirBox", "area": "new_taipei", "date": "2024-10-16", "gps_alt": 2.0, "gps_fix": 1.0, "gps_lat": 25.002, "gps_lon": 121.516, "gps_num": 9.0, "name": "\u65b0\u5317\u5e02\u6c38\u548c\u5340\u6c38\u548c\u570b\u6c11\u5c0f\u5b78", "s_d0": 7.0, "s_d1": 8.0, "s_d2": 4.0, "s_h0": 100.0, "s_t0": 26.62, "timestamp": "2024-10-16T06:21:46Z", "device_id": "74DA38F7C366", "c_d0": "N/A", "c_d0_method": "N/A"}, {"time": "06:26:51", "SiteAddr": "N/A", "SiteName": "\u65b0\u5317\u5e02\u9e97\u6797\u570b\u5c0f(2018)", "app": "AirBox", "area": "new_taipei", "date": "2024-10-16", "gps_alt": 2.0, "gps_fix": 1.0, "gps_lat": 25.068, "gps_lon": 121.368, "gps_num": 9.0, "name": "\u9e97\u6797\u570b\u5c0f", "s_d0": 6.0, "s_d1": 6.0, "s_d2": 3.0, "s_h0": 100.0, "s_t0": 25.5, "timestamp": "2024-10-16T06:26:51Z", "device_id": "74DA38F7C342", "c_d0": "N/A", "c_d0_method": "N/A"}, {"time": "06:26:31", "SiteAddr": "N/A", "SiteName": "\u65b0\u5317\u5e02\u677f\u6a4b\u570b\u5c0f(2018)", "app": "AirBox", "area": "new_taipei", "date": "2024-10-16", "gps_alt": 2.0, "gps_fix": 1.0, "gps_lat": 25.011, "gps_lon": 121.458, "gps_num": 9.0, "name": "\u677f\u6a4b\u570b\u5c0f\u524d\u9580", "s_d0": 11.0, "s_d1": 12.0, "s_d2": 7.0, "s_h0": 100.0, "s_t0": 27.5, "timestamp": "2024-10-16T06:26:31Z", "device_id": "74DA38F7C338", "c_d0": "N/A", "c_d0_method": "N/A"}, {"time": "06:15:24", "SiteAddr": "N/A", "SiteName": "\u65b0\u5317\u5e02\u5b89\u6eaa\u570b\u5c0f(2018)", "app": "AirBox", "area": "new_taipei", "date": "2024-10-16", "gps_alt": 2.0, "gps_fix": 1.0, "gps_lat": 24.93, "gps_lon": 121.372, "gps_num": 9.0, "name": "ases2", "s_d0": 1.0, "s_d1": 1.0, "s_d2": 0.0, "s_h0": 100.0, "s_t0": 28.75, "timestamp": "2024-10-16T06:15:24Z", "device_id": "74DA38F7C31C", "c_d0": "N/A", "c_d0_method": "N/A"}, {"time": "06:25:16", "SiteName": "Bird lower", "app": "AirBox", "area": "taichuang", "date": "2024-10-16", "gps_alt": 2.0, "gps_fix": 1.0, "gps_lat": 24.176, "gps_lon": 120.648, "gps_num": 9.0, "name": "Bird lower", "s_d0": 0.0, "s_d1": 0.0, "s_d2": 0.0, "s_h0": 96.0, "s_t0": 32.86, "timestamp": "2024-10-16T06:25:16Z", "device_id": "74DA38F7C2DA", "c_d0": "N/A", "c_d0_method": "N/A"}, {"time": "06:25:03", "SiteName": "\u660e\u65e5", "app": "AirBox", "area": "taichuang", "date": "2024-10-16", "gps_alt": 2.0, "gps_fix": 1.0, "gps_lat": 24.161, "gps_lon": 120.732, "gps_num": 9.0, "name": "\u660e\u65e5", "s_d0": 0.0, "s_d1": 0.0, "s_d2": 0.0, "s_h0": 100.0, "s_t0": 29.5, "timestamp": "2024-10-16T06:25:03Z", "device_id": "74DA38F7C2D6", "c_d0": "N/A", "c_d0_method": "N/A"}, {"time": "06:26:30", "SiteName": "AirBox-NDMC-21", "app": "AirBox", "area": "hsinchu_county", "date": "2024-10-16", "gps_alt": 2.0, "gps_fix": 1.0, "gps_lat": 24.866, "gps_lon": 120.986, "gps_num": 9.0, "name": "\u66d9\u5149", "s_d0": 5.0, "s_d1": 5.0, "s_d2": 3.0, "s_h0": 73.0, "s_t0": 27.62, "timestamp": "2024-10-16T06:26:30Z", "device_id": "74DA38F7C2CE", "c_d0": "N/A", "c_d0_method": "N/A"}, {"time": "06:21:17", "SiteName": "AirBox-NDMC-25", "app": "AirBox", "area": "hsinchu_county", "date": "2024-10-16", "gps_alt": 2.0, "gps_fix": 1.0, "gps_lat": 24.838, "gps_lon": 121.024, "gps_num": 9.0, "name": "apm06", "s_d0": 5.0, "s_d1": 6.0, "s_d2": 3.0, "s_h0": 79.0, "s_t0": 29.11, "timestamp": "2024-10-16T06:21:17Z", "device_id": "74DA38F7C2BE", "c_d0": "N/A", "c_d0_method": "N/A"}, {"time": "06:26:31", "SiteAddr": "N/A", "SiteName": "\u65b0\u5317\u5e02\u4e39\u9cf3\u9ad8\u4e2d(2018)", "app": "AirBox", "area": "new_taipei", "date": "2024-10-16", "gps_alt": 2.0, "gps_fix": 1.0, "gps_lat": 25.02, "gps_lon": 121.416, "gps_num": 9.0, "name": "\u4e39\u9cf3\u9ad8\u4e2d", "s_d0": 8.0, "s_d1": 10.0, "s_d2": 6.0, "s_h0": 100.0, "s_t0": 29.0, "timestamp": "2024-10-16T06:26:31Z", "device_id": "74DA38F7C29C", "c_d0": "N/A", "c_d0_method": "N/A"}, {"time": "06:27:04", "SiteAddr": "N/A", "SiteName": "THU_USR_38(2019)", "app": "AirBox", "area": "changhua", "date": "2024-10-16", "gps_alt": 2.0, "gps_fix": 1.0, "gps_lat": 23.89, "gps_lon": 120.359, "gps_num": 9.0, "name": "THUUSR-38 \u4e8c\u6797\u9ad8\u4e2d", "s_d0": 0.0, "s_d1": 0.0, "s_d2": 0.0, "s_h0": 100.0, "s_t0": 29.0, "timestamp": "2024-10-16T06:27:04Z", "device_id": "74DA38F7C28C", "c_d0": "N/A", "c_d0_method": "N/A"}, {"time": "06:21:40", "SiteAddr": "N/A", "SiteName": "THU_USR_45(2019)", "app": "AirBox", "area": "taichuang", "date": "2024-10-16", "gps_alt": 2.0, "gps_fix": 1.0, "gps_lat": 24.183, "gps_lon": 120.589, "gps_num": 9.0, "name": "\u4e00\u6a13\u8a3a\u9593", "s_d0": 24.0, "s_d1": 26.0, "s_d2": 14.0, "s_h0": 77.0, "s_t0": 26.0, "timestamp": "2024-10-16T06:21:40Z", "device_id": "74DA38F7C288", "c_d0": "N/A", "c_d0_method": "N/A"}, {"time": "06:22:58", "SiteAddr": "N/A", "SiteName": "THU_USR_48(2019)", "app": "AirBox", "area": "taichuang", "date": "2024-10-16", "gps_alt": 2.0, "gps_fix": 1.0, "gps_lat": 24.183, "gps_lon": 120.589, "gps_num": 9.0, "name": "\u56db\u6a13\u9910\u5ef3", "s_d0": 5.0, "s_d1": 5.0, "s_d2": 3.0, "s_h0": 84.0, "s_t0": 29.75, "timestamp": "2024-10-16T06:22:58Z", "device_id": "74DA38F7C282", "c_d0": "N/A", "c_d0_method": "N/A"}, {"time": "06:22:05", "SiteAddr": "N/A", "SiteName": "\u65b0\u5317\u5e02\u4e2d\u5e73\u570b\u4e2d(2018)", "app": "AirBox", "area": "new_taipei", "date": "2024-10-16", "gps_alt": 2.0, "gps_fix": 1.0, "gps_lat": 25.053, "gps_lon": 121.444, "gps_num": 9.0, "name": "\u65b0\u5317\u5e02\u7acb\u4e2d\u5e73\u570b\u4e2d", "s_d0": 10.0, "s_d1": 12.0, "s_d2": 7.0, "s_h0": 100.0, "s_t0": 26.87, "timestamp": "2024-10-16T06:22:05Z", "device_id": "74DA38F7C27E", "c_d0": "N/A", "c_d0_method": "N/A"}, {"time": "06:22:38", "SiteAddr": "N/A", "SiteName": "THU_USR_34(2019)", "app": "AirBox", "area": "changhua", "date": "2024-10-16", "gps_alt": 2.0, "gps_fix": 1.0, "gps_lat": 23.896, "gps_lon": 120.328, "gps_num": 9.0, "name": "THUUSR-34 \u8def\u4e0a\u570b\u5c0f", "s_d0": 0.0, "s_d1": 0.0, "s_d2": 0.0, "s_h0": 100.0, "s_t0": 31.86, "timestamp": "2024-10-16T06:22:38Z", "device_id": "74DA38F7C276", "c_d0": "N/A", "c_d0_method": "N/A"}, {"time": "06:25:55", "SiteAddr": "N/A", "SiteName": "\u65b0\u5317\u5e02\u6cf0\u5c71\u570b\u4e2d(2018)", "app": "AirBox", "area": "new_taipei", "date": "2024-10-16", "gps_alt": 2.0, "gps_fix": 1.0, "gps_lat": 25.065, "gps_lon": 121.425, "gps_num": 9.0, "name": "\u65b0\u5317\u5e02\u6cf0\u5c71\u5340\u6cf0\u5c71\u570b\u4e2d", "s_d0": 7.0, "s_d1": 7.0, "s_d2": 6.0, "s_h0": 100.0, "s_t0": 30.0, "timestamp": "2024-10-16T06:25:55Z", "device_id": "74DA38F7C260", "c_d0": "N/A", "c_d0_method": "N/A"}, {"time": "06:22:32", "SiteName": "\u82b1\u58c7\u570b\u4e2d \u81ea\u5f37\u6a13B\u68df", "app": "AirBox", "area": "changhua", "date": "2024-10-16", "gps_alt": 2.0, "gps_fix": 1.0, "gps_lat": 24.03, "gps_lon": 120.55, "gps_num": 9.0, "name": "\u82b1\u58c7\u570b\u4e2d \u81ea\u5f37\u6a13B\u68df", "s_d0": 36.0, "s_d1": 42.0, "s_d2": 23.0, "s_h0": 100.0, "s_t0": 29.75, "timestamp": "2024-10-16T06:22:32Z", "device_id": "74DA38F7C212", "c_d0": "N/A", "c_d0_method": "N/A"}, {"time": "06:24:33", "SiteName": "taichung16pt", "app": "AirBox", "area": "taichuang", "date": "2024-10-16", "gps_alt": 2.0, "gps_fix": 1.0, "gps_lat": 24.136, "gps_lon": 120.635, "gps_num": 9.0, "name": "taichung16pt", "s_d0": 19.0, "s_d1": 20.0, "s_d2": 11.0, "s_h0": 0.0, "s_t0": -4.0, "timestamp": "2024-10-16T06:24:33Z", "device_id": "74DA38F7C200", "c_d0": "N/A", "c_d0_method": "N/A"}, {"time": "06:24:33", "SiteAddr": "N/A", "SiteName": "THU_USR_62(2019)", "app": "AirBox", "area": "taichuang", "date": "2024-10-16", "gps_alt": 2.0, "gps_fix": 1.0, "gps_lat": 24.122, "gps_lon": 120.574, "gps_num": 9.0, "name": "\u9ec3\u6953\u4ec1", "s_d0": 26.0, "s_d1": 28.0, "s_d2": 16.0, "s_h0": 73.0, "s_t0": 31.0, "timestamp": "2024-10-16T06:24:33Z", "device_id": "74DA38F7C1B6", "c_d0": "N/A", "c_d0_method": "N/A"}, {"time": "06:24:59", "SiteAddr": "N/A", "SiteName": "THU_USR_66(2019)", "app": "AirBox", "area": "taichuang", "date": "2024-10-16", "gps_alt": 2.0, "gps_fix": 1.0, "gps_lat": 24.185, "gps_lon": 120.587, "gps_num": 9.0, "name": "7-11\u65c1", "s_d0": 21.0, "s_d1": 27.0, "s_d2": 13.0, "s_h0": 84.0, "s_t0": 28.25, "timestamp": "2024-10-16T06:24:59Z", "device_id": "74DA38F7C1B4", "c_d0": "N/A", "c_d0_method": "N/A"}, {"time": "06:21:26", "SiteName": "Peter_Taipei_Home", "app": "AirBox", "area": "taipei", "date": "2024-10-16", "gps_alt": 2.0, "gps_fix": 1.0, "gps_lat": 25.05, "gps_lon": 121.556, "gps_num": 9.0, "name": "Peter_Taipei_Home", "s_d0": 2.0, "s_d1": 2.0, "s_d2": 1.0, "s_h0": 76.0, "s_t0": 28.75, "timestamp": "2024-10-16T06:21:26Z", "device_id": "74DA38F7C194", "c_d0": "N/A", "c_d0_method": "N/A"}, {"time": "06:26:24", "SiteName": "AirBox-NDMC-16", "app": "AirBox", "area": "taichuang", "date": "2024-10-16", "gps_alt": 2.0, "gps_fix": 1.0, "gps_lat": 24.266, "gps_lon": 120.785, "gps_num": 9.0, "name": "9akkerforest", "s_d0": 21.0, "s_d1": 25.0, "s_d2": 13.0, "s_h0": 87.0, "s_t0": 27.37, "timestamp": "2024-10-16T06:26:24Z", "device_id": "74DA38F7C186", "c_d0": "N/A", "c_d0_method": "N/A"}, {"time": "06:21:45", "SiteName": "taichung171", "app": "AirBox", "area": "taichuang", "date": "2024-10-16", "gps_alt": 2.0, "gps_fix": 1.0, "gps_lat": 24.148, "gps_lon": 120.669, "gps_num": 9.0, "name": "taichung171", "s_d0": 28.0, "s_d1": 31.0, "s_d2": 17.0, "s_h0": 85.0, "s_t0": 29.86, "timestamp": "2024-10-16T06:21:45Z", "device_id": "74DA38F7C176", "c_d0": "N/A", "c_d0_method": "N/A"}, {"time": "06:24:57", "SiteName": "\u81fa\u5317\u5e02\u6cc9\u6e90\u5be6\u9a57\u570b\u6c11\u5c0f\u5b782\u6a13", "app": "AirBox", "area": "taipei", "date": "2024-10-16", "gps_alt": 2.0, "gps_fix": 1.0, "gps_lat": 25.149, "gps_lon": 121.523, "gps_num": 9.0, "name": "\u81fa\u5317\u5e02\u6cc9\u6e90\u5be6\u9a57\u570b\u6c11\u5c0f\u5b782\u6a13", "s_d0": 6.0, "s_d1": 7.0, "s_d2": 4.0, "s_h0": 100.0, "s_t0": 26.5, "timestamp": "2024-10-16T06:24:57Z", "device_id": "74DA38F7051E", "c_d0": "N/A", "c_d0_method": "N/A"}, {"time": "06:23:47", "SiteName": "\u864e\u5c71\u570b\u5c0f01", "app": "AirBox", "area": "nantou", "date": "2024-10-16", "gps_alt": 2.0, "gps_fix": 1.0, "gps_lat": 23.963, "gps_lon": 120.685, "gps_num": 9.0, "name": "\u864e\u5c71\u570b\u5c0f01", "s_d0": 45.0, "s_d1": 54.0, "s_d2": 31.0, "s_h0": 100.0, "s_t0": 30.86, "timestamp": "2024-10-16T06:23:47Z", "device_id": "74DA38F704F4", "c_d0": "N/A", "c_d0_method": "N/A"}, {"time": "06:21:27", "SiteName": "stes01", "app": "AirBox", "area": "changhua", "date": "2024-10-16", "gps_alt": 2.0, "gps_fix": 1.0, "gps_lat": 23.866, "gps_lon": 120.585, "gps_num": 9.0, "name": "stes01", "s_d0": 37.0, "s_d1": 45.0, "s_d2": 24.0, "s_h0": 100.0, "s_t0": 30.5, "timestamp": "2024-10-16T06:21:27Z", "device_id": "74DA38F704DC", "c_d0": "N/A", "c_d0_method": "N/A"}, {"time": "06:26:38", "SiteName": "cc00795", "app": "AirBox", "area": "taipei", "date": "2024-10-16", "gps_alt": 2.0, "gps_fix": 1.0, "gps_lat": 25.057, "gps_lon": 121.545, "gps_num": 9.0, "name": "cc00795", "s_d0": 5.0, "s_d1": 6.0, "s_d2": 4.0, "s_h0": 71.0, "s_t0": 28.25, "timestamp": "2024-10-16T06:26:38Z", "device_id": "74DA38F704C0", "c_d0": "N/A", "c_d0_method": "N/A"}, {"time": "06:24:14", "SiteName": "cc00794", "app": "AirBox", "area": "taipei", "date": "2024-10-16", "gps_alt": 2.0, "gps_fix": 1.0, "gps_lat": 25.095, "gps_lon": 121.495, "gps_num": 9.0, "name": "cc00794", "s_d0": 6.0, "s_d1": 7.0, "s_d2": 5.0, "s_h0": 65.0, "s_t0": 30.75, "timestamp": "2024-10-16T06:24:14Z", "device_id": "74DA38F704BE", "c_d0": "N/A", "c_d0_method": "N/A"}, {"time": "06:24:22", "SiteName": "blue OR indoor", "app": "AirBox", "area": "kaohsiung", "date": "2024-10-16", "gps_alt": 2.0, "gps_fix": 1.0, "gps_lat": 22.687, "gps_lon": 120.314, "gps_num": 9.0, "name": "blue OR indoor", "s_d0": 0.0, "s_d1": 0.0, "s_d2": 0.0, "s_h0": 66.0, "s_t0": 30.86, "timestamp": "2024-10-16T06:24:22Z", "device_id": "74DA38F704B4", "c_d0": "N/A", "c_d0_method": "N/A"}, {"time": "06:23:50", "SiteName": "YD165", "app": "AirBox", "area": "kaohsiung", "date": "2024-10-16", "gps_alt": 2.0, "gps_fix": 1.0, "gps_lat": 22.629, "gps_lon": 120.318, "gps_num": 9.0, "name": "YD165", "s_d0": 12.0, "s_d1": 13.0, "s_d2": 8.0, "s_h0": 55.0, "s_t0": 27.87, "timestamp": "2024-10-16T06:23:50Z", "device_id": "74DA38F704A2", "c_d0": "N/A", "c_d0_method": "N/A"}, {"time": "06:21:21", "SiteName": "chbes01", "app": "AirBox", "area": "pingtung", "date": "2024-10-16", "gps_alt": 2.0, "gps_fix": 1.0, "gps_lat": 22.681, "gps_lon": 120.547, "gps_num": 9.0, "name": "chbes01", "s_d0": 30.0, "s_d1": 32.0, "s_d2": 22.0, "s_h0": 80.0, "s_t0": 30.5, "timestamp": "2024-10-16T06:21:21Z", "device_id": "74DA38F70466", "c_d0": "N/A", "c_d0_method": "N/A"}, {"time": "06:22:47", "SiteName": "\u8208\u6771\u91cc", "app": "AirBox", "area": "pingtung", "date": "2024-10-16", "gps_alt": 2.0, "gps_fix": 1.0, "gps_lat": 22.471, "gps_lon": 120.46, "gps_num": 9.0, "name": "\u8208\u6771\u91cc", "s_d0": 16.0, "s_d1": 18.0, "s_d2": 12.0, "s_h0": 65.0, "s_t0": 32.61, "timestamp": "2024-10-16T06:22:47Z", "device_id": "74DA38F7044E", "c_d0": "N/A", "c_d0_method": "N/A"}, {"time": "06:21:49", "SiteName": "\u95dc\u5edf\u570b\u5c0f", "app": "AirBox", "area": "tainan", "date": "2024-10-16", "gps_alt": 2.0, "gps_fix": 1.0, "gps_lat": 22.963, "gps_lon": 120.325, "gps_num": 9.0, "name": "\u95dc\u5edf\u570b\u5c0f", "s_d0": 15.0, "s_d1": 16.0, "s_d2": 11.0, "s_h0": 78.0, "s_t0": 32.0, "timestamp": "2024-10-16T06:21:49Z", "device_id": "74DA38F70420", "c_d0": "N/A", "c_d0_method": "N/A"}, {"time": "06:21:47", "SiteName": "\u81fa\u5357\u5e02\u4e09\u6148\u570b\u5c0f", "app": "AirBox", "area": "tainan", "date": "2024-10-16", "gps_alt": 2.0, "gps_fix": 1.0, "gps_lat": 23.239, "gps_lon": 120.109, "gps_num": 9.0, "name": "\u81fa\u5357\u5e02\u4e09\u6148\u570b\u5c0f", "s_d0": 28.0, "s_d1": 30.0, "s_d2": 19.0, "s_h0": 100.0, "s_t0": 31.36, "timestamp": "2024-10-16T06:21:47Z", "device_id": "74DA38F70402", "c_d0": "N/A", "c_d0_method": "N/A"}, {"time": "06:25:39", "SiteName": "\u6046\u6625\u5de5\u5546\u7384\u95dc", "app": "AirBox", "area": "pingtung", "date": "2024-10-16", "gps_alt": 2.0, "gps_fix": 1.0, "gps_lat": 21.992, "gps_lon": 120.747, "gps_num": 9.0, "name": "\u6046\u6625\u5de5\u5546\u7384\u95dc", "s_d0": 4.0, "s_d1": 5.0, "s_d2": 3.0, "s_h0": 49.0, "s_t0": 28.75, "timestamp": "2024-10-16T06:25:39Z", "device_id": "74DA38F703F4", "c_d0": "N/A", "c_d0_method": "N/A"}, {"time": "06:27:02", "SiteName": "\u548c\u8208", "app": "AirBox", "area": "chiayi_county", "date": "2024-10-16", "gps_alt": 2.0, "gps_fix": 1.0, "gps_lat": 23.442, "gps_lon": 120.454, "gps_num": 9.0, "name": "\u548c\u8208", "s_d0": 35.0, "s_d1": 42.0, "s_d2": 22.0, "s_h0": 74.0, "s_t0": 30.25, "timestamp": "2024-10-16T06:27:02Z", "device_id": "74DA38F703E2", "c_d0": "N/A", "c_d0_method": "N/A"}, {"time": "06:22:06", "SiteName": "GreenLifeAB", "app": "AirBox", "area": "tainan", "date": "2024-10-16", "gps_alt": 2.0, "gps_fix": 1.0, "gps_lat": 22.976, "gps_lon": 120.199, "gps_num": 9.0, "name": "GreenLifeAB", "s_d0": 26.0, "s_d1": 27.0, "s_d2": 16.0, "s_h0": 69.0, "s_t0": 29.25, "timestamp": "2024-10-16T06:22:06Z", "device_id": "74DA38F703CA", "c_d0": "N/A", "c_d0_method": "N/A"}, {"time": "06:22:00", "SiteName": "\u5f70\u5316\u7e23\u7530\u982d\u570b\u5c0f01", "app": "AirBox", "area": "changhua", "date": "2024-10-16", "gps_alt": 2.0, "gps_fix": 1.0, "gps_lat": 23.836, "gps_lon": 120.449, "gps_num": 9.0, "name": "\u5f70\u5316\u7e23\u7530\u982d\u570b\u5c0f01", "s_d0": 29.0, "s_d1": 35.0, "s_d2": 18.0, "s_h0": 79.0, "s_t0": 31.36, "timestamp": "2024-10-16T06:22:00Z", "device_id": "74DA38F703A6", "c_d0": "N/A", "c_d0_method": "N/A"}, {"time": "06:25:03", "SiteName": "\u592a\u5e73\u570b\u5c0f", "app": "AirBox", "area": "nantou", "date": "2024-10-16", "gps_alt": 2.0, "gps_fix": 1.0, "gps_lat": 24.026, "gps_lon": 120.921, "gps_num": 9.0, "name": "\u592a\u5e73\u570b\u5c0f", "s_d0": 47.0, "s_d1": 59.0, "s_d2": 32.0, "s_h0": 100.0, "s_t0": 28.36, "timestamp": "2024-10-16T06:25:03Z", "device_id": "74DA38F7039C", "c_d0": "N/A", "c_d0_method": "N/A"}, {"time": "06:24:03", "SiteName": "khps\u897f2\u6a13", "app": "AirBox", "area": "pingtung", "date": "2024-10-16", "gps_alt": 2.0, "gps_fix": 1.0, "gps_lat": 22.547, "gps_lon": 120.543, "gps_num": 9.0, "name": "khps\u897f2\u6a13", "s_d0": 22.0, "s_d1": 23.0, "s_d2": 16.0, "s_h0": 59.0, "s_t0": 27.37, "timestamp": "2024-10-16T06:24:03Z", "device_id": "74DA38F70392", "c_d0": "N/A", "c_d0_method": "N/A"}, {"time": "06:24:43", "SiteName": "\u660c\u9686\u570b\u5c0f\u8fa6\u516c\u5ba4", "app": "AirBox", "area": "pingtung", "date": "2024-10-16", "gps_alt": 2.0, "gps_fix": 1.0, "gps_lat": 22.446, "gps_lon": 120.56, "gps_num": 9.0, "name": "\u660c\u9686\u570b\u5c0f\u8fa6\u516c\u5ba4", "s_d0": 23.0, "s_d1": 25.0, "s_d2": 15.0, "s_h0": 100.0, "s_t0": 30.0, "timestamp": "2024-10-16T06:24:43Z", "device_id": "74DA38F7037E", "c_d0": "N/A", "c_d0_method": "N/A"}, {"time": "06:24:54", "SiteName": "\u53f0\u5357\u5e02\u5584\u7cd6\u570b\u5c0f\u7a7a\u6c23\u76d2\u5b50", "app": "AirBox", "area": "tainan", "date": "2024-10-16", "gps_alt": 2.0, "gps_fix": 1.0, "gps_lat": 23.153, "gps_lon": 120.288, "gps_num": 9.0, "name": "\u53f0\u5357\u5e02\u5584\u7cd6\u570b\u5c0f\u7a7a\u6c23\u76d2\u5b50", "s_d0": 19.0, "s_d1": 21.0, "s_d2": 13.0, "s_h0": 96.0, "s_t0": 32.25, "timestamp": "2024-10-16T06:24:54Z", "device_id": "74DA38F7036C", "c_d0": "N/A", "c_d0_method": "N/A"}, {"time": "06:25:44", "SiteName": "2463", "app": "AirBox", "area": "taichuang", "date": "2024-10-16", "gps_alt": 2.0, "gps_fix": 1.0, "gps_lat": 24.18, "gps_lon": 120.622, "gps_num": 9.0, "name": "2463", "s_d0": 22.0, "s_d1": 23.0, "s_d2": 15.0, "s_h0": 68.0, "s_t0": 30.11, "timestamp": "2024-10-16T06:25:44Z", "device_id": "74DA38F70310", "c_d0": "N/A", "c_d0_method": "N/A"}, {"time": "06:25:47", "SiteName": "\u570b\u7acb\u5317\u9580\u9ad8\u4e2d_\u79d1\u5b78\u9928", "app": "AirBox", "area": "tainan", "date": "2024-10-16", "gps_alt": 2.0, "gps_fix": 1.0, "gps_lat": 23.167, "gps_lon": 120.176, "gps_num": 9.0, "name": "\u570b\u7acb\u5317\u9580\u9ad8\u4e2d_\u79d1\u5b78\u9928", "s_d0": 17.0, "s_d1": 18.0, "s_d2": 12.0, "s_h0": 100.0, "s_t0": 30.5, "timestamp": "2024-10-16T06:25:47Z", "device_id": "74DA38F702E4", "c_d0": "N/A", "c_d0_method": "N/A"}, {"time": "06:26:42", "SiteName": "Astra", "app": "AirBox", "area": "hsinchu_city", "date": "2024-10-16", "gps_alt": 2.0, "gps_fix": 1.0, "gps_lat": 24.812, "gps_lon": 120.962, "gps_num": 9.0, "name": "Astra", "s_d0": 14.0, "s_d1": 15.0, "s_d2": 11.0, "s_h0": 79.0, "s_t0": 30.0, "timestamp": "2024-10-16T06:26:42Z", "device_id": "74DA38F702C8", "c_d0": "N/A", "c_d0_method": "N/A"}, {"time": "06:25:23", "SiteName": "\u963f\u52f8", "app": "AirBox", "area": "yunlin", "date": "2024-10-16", "gps_alt": 2.0, "gps_fix": 1.0, "gps_lat": 23.756, "gps_lon": 120.323, "gps_num": 9.0, "name": "\u963f\u52f8", "s_d0": 32.0, "s_d1": 36.0, "s_d2": 20.0, "s_h0": 73.0, "s_t0": 31.36, "timestamp": "2024-10-16T06:25:23Z", "device_id": "74DA38F7025E", "c_d0": "N/A", "c_d0_method": "N/A"}, {"time": "06:23:13", "SiteName": "myPM2.5_44", "app": "AirBox", "area": "nantou", "date": "2024-10-16", "gps_alt": 2.0, "gps_fix": 1.0, "gps_lat": 23.925, "gps_lon": 120.638, "gps_num": 9.0, "name": "myPM2.5_44", "s_d0": 47.0, "s_d1": 59.0, "s_d2": 28.0, "s_h0": 100.0, "s_t0": 28.61, "timestamp": "2024-10-16T06:23:13Z", "device_id": "74DA38F70244", "c_d0": "N/A", "c_d0_method": "N/A"}, {"time": "06:25:58", "SiteName": "\u4f38\u6771\u570b\u5c0f2", "app": "AirBox", "area": "changhua", "date": "2024-10-16", "gps_alt": 2.0, "gps_fix": 1.0, "gps_lat": 24.146, "gps_lon": 120.496, "gps_num": 9.0, "name": "\u4f38\u6771\u570b\u5c0f2", "s_d0": 9.0, "s_d1": 10.0, "s_d2": 6.0, "s_h0": 62.0, "s_t0": 27.25, "timestamp": "2024-10-16T06:25:58Z", "device_id": "74DA38F70208", "c_d0": "N/A", "c_d0_method": "N/A"}, {"time": "06:25:29", "SiteName": "\u4e2d\u793e\u8def\u4e00\u6bb536\u5df73\u865f1\u6a13", "app": "AirBox", "area": "taipei", "date": "2024-10-16", "gps_alt": 2.0, "gps_fix": 1.0, "gps_lat": 25.108, "gps_lon": 121.559, "gps_num": 9.0, "name": "\u4e2d\u793e\u8def\u4e00\u6bb536\u5df73\u865f1\u6a13", "s_d0": 10.0, "s_d1": 11.0, "s_d2": 7.0, "s_h0": 100.0, "s_t0": 25.75, "timestamp": "2024-10-16T06:25:29Z", "device_id": "74DA38F701C4", "c_d0": "N/A", "c_d0_method": "N/A"}, {"time": "06:23:04", "SiteName": "\u9f8d\u660c\u8defB", "app": "AirBox", "area": "changhua", "date": "2024-10-16", "gps_alt": 2.0, "gps_fix": 1.0, "gps_lat": 24.218, "gps_lon": 120.489, "gps_num": 9.0, "name": "\u9f8d\u660c\u8defB", "s_d0": 15.0, "s_d1": 16.0, "s_d2": 10.0, "s_h0": 100.0, "s_t0": 31.11, "timestamp": "2024-10-16T06:23:04Z", "device_id": "74DA38F701C2", "c_d0": "N/A", "c_d0_method": "N/A"}, {"time": "06:22:06", "SiteName": "\u65b0\u6a39\u8def258\u5df71\u865fA", "app": "AirBox", "area": "new_taipei", "date": "2024-10-16", "gps_alt": 2.0, "gps_fix": 1.0, "gps_lat": 25.015, "gps_lon": 121.431, "gps_num": 9.0, "name": "\u65b0\u6a39\u8def258\u5df71\u865fA", "s_d0": 0.0, "s_d1": 0.0, "s_d2": 0.0, "s_h0": 44.0, "s_t0": 28.25, "timestamp": "2024-10-16T06:22:06Z", "device_id": "74DA38F701C0", "c_d0": "N/A", "c_d0_method": "N/A"}, {"time": "06:21:47", "SiteName": "Emma", "app": "AirBox", "area": "taipei", "date": "2024-10-16", "gps_alt": 2.0, "gps_fix": 1.0, "gps_lat": 25.055, "gps_lon": 121.546, "gps_num": 9.0, "name": "Emma", "s_d0": 1.0, "s_d1": 1.0, "s_d2": 0.0, "s_h0": 61.0, "s_t0": 29.11, "timestamp": "2024-10-16T06:21:47Z", "device_id": "74DA38F701BE", "c_d0": "N/A", "c_d0_method": "N/A"}, {"time": "06:21:34", "SiteName": "\u5357\u5824\u8def", "app": "AirBox", "area": "changhua", "date": "2024-10-16", "gps_alt": 2.0, "gps_fix": 1.0, "gps_lat": 24.21, "gps_lon": 120.475, "gps_num": 9.0, "name": "\u5357\u5824\u8def", "s_d0": 9.0, "s_d1": 10.0, "s_d2": 6.0, "s_h0": 100.0, "s_t0": 29.0, "timestamp": "2024-10-16T06:21:34Z", "device_id": "74DA38F701BC", "c_d0": "N/A", "c_d0_method": "N/A"}, {"time": "06:27:15", "SiteName": "\u79d1\u5712\u8def\u6c34\u5854\uff08\u5de6\uff09", "app": "AirBox", "area": "taichuang", "date": "2024-10-16", "gps_alt": 2.0, "gps_fix": 1.0, "gps_lat": 24.199, "gps_lon": 120.601, "gps_num": 9.0, "name": "\u79d1\u5712\u8def\u6c34\u5854\uff08\u5de6\uff09", "s_d0": 14.0, "s_d1": 15.0, "s_d2": 9.0, "s_h0": 100.0, "s_t0": 31.0, "timestamp": "2024-10-16T06:27:15Z", "device_id": "74DA38F701B2", "c_d0": "N/A", "c_d0_method": "N/A"}, {"time": "06:24:42", "SiteName": "\u9f8d\u660c\u8defA", "app": "AirBox", "area": "changhua", "date": "2024-10-16", "gps_alt": 2.0, "gps_fix": 1.0, "gps_lat": 24.22, "gps_lon": 120.477, "gps_num": 9.0, "name": "\u9f8d\u660c\u8defA", "s_d0": 11.0, "s_d1": 12.0, "s_d2": 8.0, "s_h0": 100.0, "s_t0": 28.11, "timestamp": "2024-10-16T06:24:42Z", "device_id": "74DA38F701AA", "c_d0": "N/A", "c_d0_method": "N/A"}, {"time": "06:26:54", "SiteName": "\u83ef\u76db\u9813\u5c0f\u5b78\u767d\u5bae\u8fa6\u516c\u5ba4", "app": "AirBox", "area": "taichuang", "date": "2024-10-16", "gps_alt": 2.0, "gps_fix": 1.0, "gps_lat": 24.196, "gps_lon": 120.716, "gps_num": 9.0, "name": "\u83ef\u76db\u9813\u5c0f\u5b78\u767d\u5bae\u8fa6\u516c\u5ba4", "s_d0": 16.0, "s_d1": 18.0, "s_d2": 11.0, "s_h0": 100.0, "s_t0": 30.25, "timestamp": "2024-10-16T06:26:54Z", "device_id": "74DA38F70192", "c_d0": "N/A", "c_d0_method": "N/A"}, {"time": "06:24:46", "SiteName": "\u83ef\u76db\u9813\u5c0f\u5b78\u570b\u969b\u85dd\u6587\u5927\u6a13", "app": "AirBox", "area": "taichuang", "date": "2024-10-16", "gps_alt": 2.0, "gps_fix": 1.0, "gps_lat": 24.197, "gps_lon": 120.716, "gps_num": 9.0, "name": "\u83ef\u76db\u9813\u5c0f\u5b78\u570b\u969b\u85dd\u6587\u5927\u6a13", "s_d0": 18.0, "s_d1": 20.0, "s_d2": 13.0, "s_h0": 75.0, "s_t0": 29.61, "timestamp": "2024-10-16T06:24:46Z", "device_id": "74DA38F70190", "c_d0": "N/A", "c_d0_method": "N/A"}, {"time": "06:26:05", "SiteName": "\u5f70\u5316\u7e23\u7acb\u597d\u4fee\u570b\u5c0f02", "app": "AirBox", "area": "changhua", "date": "2024-10-16", "gps_alt": 2.0, "gps_fix": 1.0, "gps_lat": 24.007, "gps_lon": 120.458, "gps_num": 9.0, "name": "\u5f70\u5316\u7e23\u7acb\u597d\u4fee\u570b\u5c0f02", "s_d0": 18.0, "s_d1": 19.0, "s_d2": 12.0, "s_h0": 84.0, "s_t0": 34.11, "timestamp": "2024-10-16T06:26:05Z", "device_id": "74DA38F70186", "c_d0": "N/A", "c_d0_method": "N/A"}, {"time": "06:26:05", "SiteName": "\u81fa\u4e2d\u5e02\u5927\u696d\u570b\u4e2d\u8cc7\u512a\u73ed\u6eab\u99a8\u5712\u5730", "app": "AirBox", "area": "taichuang", "date": "2024-10-16", "gps_alt": 2.0, "gps_fix": 1.0, "gps_lat": 24.154, "gps_lon": 120.652, "gps_num": 9.0, "name": "\u81fa\u4e2d\u5e02\u5927\u696d\u570b\u4e2d\u8cc7\u512a\u73ed\u6eab\u99a8\u5712\u5730", "s_d0": 22.0, "s_d1": 24.0, "s_d2": 15.0, "s_h0": 59.0, "s_t0": 26.62, "timestamp": "2024-10-16T06:26:05Z", "device_id": "74DA38F7017C", "c_d0": "N/A", "c_d0_method": "N/A"}, {"time": "06:22:40", "SiteName": "\u5149\u6625\u570b\u4e2d", "app": "AirBox", "area": "pingtung", "date": "2024-10-16", "gps_alt": 2.0, "gps_fix": 1.0, "gps_lat": 22.534, "gps_lon": 120.54, "gps_num": 9.0, "name": "\u5149\u6625\u570b\u4e2d", "s_d0": 26.0, "s_d1": 27.0, "s_d2": 18.0, "s_h0": 62.0, "s_t0": 30.25, "timestamp": "2024-10-16T06:22:40Z", "device_id": "74DA38F70170", "c_d0": "N/A", "c_d0_method": "N/A"}, {"time": "06:24:49", "SiteName": "TaipeiGarden", "app": "AirBox", "area": "taipei", "date": "2024-10-16", "gps_alt": 2.0, "gps_fix": 1.0, "gps_lat": 25.037, "gps_lon": 121.57, "gps_num": 9.0, "name": "TaipeiGarden", "s_d0": 16.0, "s_d1": 17.0, "s_d2": 10.0, "s_h0": 100.0, "s_t0": 27.0, "timestamp": "2024-10-16T06:24:49Z", "device_id": "74DA38F7015A", "c_d0": "N/A", "c_d0_method": "N/A"}, {"time": "06:21:35", "SiteName": "\u745e\u7f8e\u570b\u5c0fpm2.5", "app": "AirBox", "area": "hualien", "date": "2024-10-16", "gps_alt": 2.0, "gps_fix": 1.0, "gps_lat": 23.492, "gps_lon": 121.39, "gps_num": 9.0, "name": "\u745e\u7f8e\u570b\u5c0fpm2.5", "s_d0": 0.0, "s_d1": 0.0, "s_d2": 0.0, "s_h0": 74.0, "s_t0": 28.25, "timestamp": "2024-10-16T06:21:35Z", "device_id": "74DA38F70138", "c_d0": "N/A", "c_d0_method": "N/A"}, {"time": "06:22:31", "SiteName": "\u570b\u7acb\u5317\u9580\u9ad8\u4e2d_\u50b3\u9054\u5ba4", "app": "AirBox", "area": "tainan", "date": "2024-10-16", "gps_alt": 2.0, "gps_fix": 1.0, "gps_lat": 23.167, "gps_lon": 120.177, "gps_num": 9.0, "name": "\u570b\u7acb\u5317\u9580\u9ad8\u4e2d_\u50b3\u9054\u5ba4", "s_d0": 0.0, "s_d1": 0.0, "s_d2": 0.0, "s_h0": 100.0, "s_t0": 31.75, "timestamp": "2024-10-16T06:22:31Z", "device_id": "74DA38F70110", "c_d0": "N/A", "c_d0_method": "N/A"}, {"time": "06:23:38", "SiteName": "\u570b\u7acb\u5317\u9580\u9ad8\u4e2d_\u64cd\u5834", "app": "AirBox", "area": "tainan", "date": "2024-10-16", "gps_alt": 2.0, "gps_fix": 1.0, "gps_lat": 23.167, "gps_lon": 120.175, "gps_num": 9.0, "name": "\u570b\u7acb\u5317\u9580\u9ad8\u4e2d_\u64cd\u5834", "s_d0": 27.0, "s_d1": 29.0, "s_d2": 18.0, "s_h0": 100.0, "s_t0": 29.61, "timestamp": "2024-10-16T06:23:38Z", "device_id": "74DA38F7010E", "c_d0": "N/A", "c_d0_method": "N/A"}, {"time": "06:26:49", "SiteName": "\u80b2\u5e73\u8def(\u5b89\u5e73)", "app": "AirBox", "area": "tainan", "date": "2024-10-16", "gps_alt": 2.0, "gps_fix": 1.0, "gps_lat": 22.988, "gps_lon": 120.167, "gps_num": 9.0, "name": "\u80b2\u5e73\u8def(\u5b89\u5e73)", "s_d0": 16.0, "s_d1": 19.0, "s_d2": 10.0, "s_h0": 0.0, "s_t0": -4.0, "timestamp": "2024-10-16T06:26:49Z", "device_id": "74DA38F70104", "c_d0": "N/A", "c_d0_method": "N/A"}, {"time": "06:24:23", "SiteName": "\u6771\u6e2f\u9ad8\u4e2d\u81ea\u5f37\u6a13", "app": "AirBox", "area": "pingtung", "date": "2024-10-16", "gps_alt": 2.0, "gps_fix": 1.0, "gps_lat": 22.465, "gps_lon": 120.455, "gps_num": 9.0, "name": "\u6771\u6e2f\u9ad8\u4e2d\u81ea\u5f37\u6a13", "s_d0": 26.0, "s_d1": 27.0, "s_d2": 18.0, "s_h0": 82.0, "s_t0": 31.0, "timestamp": "2024-10-16T06:24:23Z", "device_id": "74DA38F700F8", "c_d0": "N/A", "c_d0_method": "N/A"}, {"time": "06:26:13", "SiteName": "285", "app": "AirBox", "area": "miaoli", "date": "2024-10-16", "gps_alt": 2.0, "gps_fix": 1.0, "gps_lat": 24.689, "gps_lon": 120.869, "gps_num": 9.0, "name": "285", "s_d0": 9.0, "s_d1": 10.0, "s_d2": 6.0, "s_h0": 59.0, "s_t0": 36.0, "timestamp": "2024-10-16T06:26:13Z", "device_id": "74DA38F700E6", "c_d0": "N/A", "c_d0_method": "N/A"}, {"time": "06:21:44", "SiteName": "trps02", "app": "AirBox", "area": "chiayi_county", "date": "2024-10-16", "gps_alt": 2.0, "gps_fix": 1.0, "gps_lat": 23.557, "gps_lon": 120.434, "gps_num": 9.0, "name": "trps02", "s_d0": 25.0, "s_d1": 27.0, "s_d2": 14.0, "s_h0": 100.0, "s_t0": 29.75, "timestamp": "2024-10-16T06:21:44Z", "device_id": "74DA38F700DA", "c_d0": "N/A", "c_d0_method": "N/A"}, {"time": "06:26:29", "SiteName": "trps01", "app": "AirBox", "area": "chiayi_county", "date": "2024-10-16", "gps_alt": 2.0, "gps_fix": 1.0, "gps_lat": 23.557, "gps_lon": 120.434, "gps_num": 9.0, "name": "trps01", "s_d0": 43.0, "s_d1": 54.0, "s_d2": 27.0, "s_h0": 100.0, "s_t0": 31.86, "timestamp": "2024-10-16T06:26:29Z", "device_id": "74DA38F700D8", "c_d0": "N/A", "c_d0_method": "N/A"}, {"time": "06:23:56", "SiteName": "ntjh", "app": "AirBox", "area": "nantou", "date": "2024-10-16", "gps_alt": 2.0, "gps_fix": 1.0, "gps_lat": 23.912, "gps_lon": 120.675, "gps_num": 9.0, "name": "ntjh", "s_d0": 32.0, "s_d1": 38.0, "s_d2": 22.0, "s_h0": 77.0, "s_t0": 25.75, "timestamp": "2024-10-16T06:23:56Z", "device_id": "74DA38F70088", "c_d0": "N/A", "c_d0_method": "N/A"}, {"time": "06:22:56", "SiteName": "island", "app": "AirBox", "area": "nantou", "date": "2024-10-16", "gps_alt": 2.0, "gps_fix": 1.0, "gps_lat": 23.976, "gps_lon": 120.704, "gps_num": 9.0, "name": "island", "s_d0": 43.0, "s_d1": 52.0, "s_d2": 29.0, "s_h0": 100.0, "s_t0": 31.36, "timestamp": "2024-10-16T06:22:56Z", "device_id": "74DA38F70084", "c_d0": "N/A", "c_d0_method": "N/A"}, {"time": "06:26:43", "SiteName": "\u5317\u9580\u5751\u8fd1\u96ea\u96a7", "app": "AirBox", "area": "yilan", "date": "2024-10-16", "gps_alt": 2.0, "gps_fix": 1.0, "gps_lat": 24.845, "gps_lon": 121.791, "gps_num": 9.0, "name": "\u5317\u9580\u5751\u8fd1\u96ea\u96a7", "s_d0": 7.0, "s_d1": 7.0, "s_d2": 5.0, "s_h0": 83.0, "s_t0": 29.36, "timestamp": "2024-10-16T06:26:43Z", "device_id": "74DA38F7005E", "c_d0": "N/A", "c_d0_method": "N/A"}, {"time": "06:26:32", "SiteName": "\u5927\u696d\u570b\u4e2d\u79d1\u5b78\u5275\u5ba2\u6559\u5ba4", "app": "AirBox", "area": "taichuang", "date": "2024-10-16", "gps_alt": 2.0, "gps_fix": 1.0, "gps_lat": 24.154, "gps_lon": 120.652, "gps_num": 9.0, "name": "\u5927\u696d\u570b\u4e2d\u79d1\u5b78\u5275\u5ba2\u6559\u5ba4", "s_d0": 18.0, "s_d1": 20.0, "s_d2": 12.0, "s_h0": 100.0, "s_t0": 29.75, "timestamp": "2024-10-16T06:26:32Z", "device_id": "74DA38F70038", "c_d0": "N/A", "c_d0_method": "N/A"}, {"time": "06:21:37", "SiteName": "myPM2.5-h", "app": "AirBox", "area": "taipei", "date": "2024-10-16", "gps_alt": 2.0, "gps_fix": 1.0, "gps_lat": 25.039, "gps_lon": 121.589, "gps_num": 9.0, "name": "myPM2.5-h", "s_d0": 12.0, "s_d1": 14.0, "s_d2": 9.0, "s_h0": 100.0, "s_t0": 28.75, "timestamp": "2024-10-16T06:21:37Z", "device_id": "74DA38F70024", "c_d0": "N/A", "c_d0_method": "N/A"}, {"time": "06:26:32", "SiteName": "\u6c38\u9686\u5eda\u5177", "app": "AirBox", "area": "nantou", "date": "2024-10-16", "gps_alt": 2.0, "gps_fix": 1.0, "gps_lat": 23.751, "gps_lon": 120.748, "gps_num": 9.0, "name": "\u6c38\u9686\u5eda\u5177", "s_d0": 45.0, "s_d1": 57.0, "s_d2": 28.0, "s_h0": 85.0, "s_t0": 28.11, "timestamp": "2024-10-16T06:26:32Z", "device_id": "74DA38F6FFF8", "c_d0": "N/A", "c_d0_method": "N/A"}, {"time": "06:25:26", "SiteName": "cloudgate", "app": "AirBox", "area": "nantou", "date": "2024-10-16", "gps_alt": 2.0, "gps_fix": 1.0, "gps_lat": 23.757, "gps_lon": 120.677, "gps_num": 9.0, "name": "cloudgate", "s_d0": 37.0, "s_d1": 44.0, "s_d2": 24.0, "s_h0": 78.0, "s_t0": 28.5, "timestamp": "2024-10-16T06:25:26Z", "device_id": "74DA38F6FFF6", "c_d0": "N/A", "c_d0_method": "N/A"}, {"time": "06:25:20", "SiteName": "\u4f86\u310e\u82ad\u6a02\u5427", "app": "AirBox", "area": "changhua", "date": "2024-10-16", "gps_alt": 2.0, "gps_fix": 1.0, "gps_lat": 23.886, "gps_lon": 120.587, "gps_num": 9.0, "name": "\u4f86\u310e\u82ad\u6a02\u5427", "s_d0": 37.0, "s_d1": 44.0, "s_d2": 24.0, "s_h0": 100.0, "s_t0": 30.75, "timestamp": "2024-10-16T06:25:20Z", "device_id": "74DA38F6FFEC", "c_d0": "N/A", "c_d0_method": "N/A"}, {"time": "06:24:35", "SiteName": "THH", "app": "AirBox", "area": "kaohsiung", "date": "2024-10-16", "gps_alt": 2.0, "gps_fix": 1.0, "gps_lat": 22.709, "gps_lon": 120.298, "gps_num": 9.0, "name": "THH", "s_d0": 1.0, "s_d1": 1.0, "s_d2": 0.0, "s_h0": 77.0, "s_t0": 27.12, "timestamp": "2024-10-16T06:24:35Z", "device_id": "74DA38F6FFE0", "c_d0": "N/A", "c_d0_method": "N/A"}, {"time": "06:24:34", "SiteName": "\u6c38\u9686\u793e\u5340", "app": "AirBox", "area": "nantou", "date": "2024-10-16", "gps_alt": 2.0, "gps_fix": 1.0, "gps_lat": 23.75, "gps_lon": 120.777, "gps_num": 9.0, "name": "\u6c38\u9686\u793e\u5340", "s_d0": 58.0, "s_d1": 73.0, "s_d2": 36.0, "s_h0": 100.0, "s_t0": 27.25, "timestamp": "2024-10-16T06:24:34Z", "device_id": "74DA38F6FFDC", "c_d0": "N/A", "c_d0_method": "N/A"}, {"time": "06:22:31", "SiteName": "\u9e7f\u8c37\u6e38\u6cf3\u6c60", "app": "AirBox", "area": "nantou", "date": "2024-10-16", "gps_alt": 2.0, "gps_fix": 1.0, "gps_lat": 23.744, "gps_lon": 120.757, "gps_num": 9.0, "name": "\u9e7f\u8c37\u6e38\u6cf3\u6c60", "s_d0": 50.0, "s_d1": 64.0, "s_d2": 33.0, "s_h0": 79.0, "s_t0": 28.36, "timestamp": "2024-10-16T06:22:31Z", "device_id": "74DA38F6FFD0", "c_d0": "N/A", "c_d0_method": "N/A"}, {"time": "06:25:22", "SiteName": "\u840a\u723e\u5bcc", "app": "AirBox", "area": "nantou", "date": "2024-10-16", "gps_alt": 2.0, "gps_fix": 1.0, "gps_lat": 23.758, "gps_lon": 120.677, "gps_num": 9.0, "name": "\u840a\u723e\u5bcc", "s_d0": 33.0, "s_d1": 38.0, "s_d2": 21.0, "s_h0": 71.0, "s_t0": 28.86, "timestamp": "2024-10-16T06:25:22Z", "device_id": "74DA38F6FFCE", "c_d0": "N/A", "c_d0_method": "N/A"}, {"time": "06:24:08", "SiteName": "\u8302\u9a30\u96fb\u8166", "app": "AirBox", "area": "nantou", "date": "2024-10-16", "gps_alt": 2.0, "gps_fix": 1.0, "gps_lat": 23.737, "gps_lon": 120.76, "gps_num": 9.0, "name": "\u8302\u9a30\u96fb\u8166", "s_d0": 49.0, "s_d1": 62.0, "s_d2": 33.0, "s_h0": 69.0, "s_t0": 30.25, "timestamp": "2024-10-16T06:24:08Z", "device_id": "74DA38F6FFC6", "c_d0": "N/A", "c_d0_method": "N/A"}, {"time": "06:21:16", "SiteName": "CET.indoor", "app": "AirBox", "area": "kaohsiung", "date": "2024-10-16", "gps_alt": 2.0, "gps_fix": 1.0, "gps_lat": 22.619, "gps_lon": 120.299, "gps_num": 9.0, "name": "CET.indoor", "s_d0": 4.0, "s_d1": 4.0, "s_d2": 2.0, "s_h0": 54.0, "s_t0": 27.87, "timestamp": "2024-10-16T06:21:16Z", "device_id": "74DA38F6FFAC", "c_d0": "N/A", "c_d0_method": "N/A"}, {"time": "06:23:31", "SiteName": "CET.outdoor", "app": "AirBox", "area": "kaohsiung", "date": "2024-10-16", "gps_alt": 2.0, "gps_fix": 1.0, "gps_lat": 22.619, "gps_lon": 120.3, "gps_num": 9.0, "name": "CET.outdoor", "s_d0": 22.0, "s_d1": 23.0, "s_d2": 15.0, "s_h0": 81.0, "s_t0": 29.61, "timestamp": "2024-10-16T06:23:31Z", "device_id": "74DA38F6FFA8", "c_d0": "N/A", "c_d0_method": "N/A"}, {"time": "06:23:46", "SiteName": "Castle", "app": "AirBox", "area": "taipei", "date": "2024-10-16", "gps_alt": 2.0, "gps_fix": 1.0, "gps_lat": 24.991, "gps_lon": 121.577, "gps_num": 9.0, "name": "Castle", "s_d0": 5.0, "s_d1": 5.0, "s_d2": 4.0, "s_h0": 100.0, "s_t0": 28.61, "timestamp": "2024-10-16T06:23:46Z", "device_id": "74DA38F6FFA4", "c_d0": "N/A", "c_d0_method": "N/A"}, {"time": "06:22:17", "SiteName": "\u65b0\u797f\u516c\u5712", "app": "AirBox", "area": "taipei", "date": "2024-10-16", "gps_alt": 2.0, "gps_fix": 1.0, "gps_lat": 25.065, "gps_lon": 121.527, "gps_num": 9.0, "name": "\u65b0\u797f\u516c\u5712", "s_d0": 14.0, "s_d1": 15.0, "s_d2": 9.0, "s_h0": 82.0, "s_t0": 28.36, "timestamp": "2024-10-16T06:22:17Z", "device_id": "74DA38F6FF60", "c_d0": "N/A", "c_d0_method": "N/A"}, {"time": "06:21:08", "SiteName": "Blsh-SCIclass", "app": "AirBox", "area": "taipei", "date": "2024-10-16", "gps_alt": 2.0, "gps_fix": 1.0, "gps_lat": 25.087, "gps_lon": 121.523, "gps_num": 9.0, "name": "Blsh-SCIclass", "s_d0": 5.0, "s_d1": 6.0, "s_d2": 3.0, "s_h0": 0.0, "s_t0": -4.0, "timestamp": "2024-10-16T06:21:08Z", "device_id": "74DA38F6FF5A", "c_d0": "N/A", "c_d0_method": "N/A"}, {"time": "06:27:09", "SiteName": "jchiou\u5bf6\u8208", "app": "AirBox", "area": "taipei", "date": "2024-10-16", "gps_alt": 2.0, "gps_fix": 1.0, "gps_lat": 24.973, "gps_lon": 121.55, "gps_num": 9.0, "name": "jchiou\u5bf6\u8208", "s_d0": 8.0, "s_d1": 8.0, "s_d2": 6.0, "s_h0": 75.0, "s_t0": 29.0, "timestamp": "2024-10-16T06:27:09Z", "device_id": "74DA38F6FF28", "c_d0": "N/A", "c_d0_method": "N/A"}, {"time": "06:25:09", "SiteName": "\u51ac\u5c0f A-1", "app": "AirBox", "area": "yilan", "date": "2024-10-16", "gps_alt": 2.0, "gps_fix": 1.0, "gps_lat": 24.631, "gps_lon": 121.789, "gps_num": 9.0, "name": "\u51ac\u5c0f A-1", "s_d0": 2.0, "s_d1": 2.0, "s_d2": 1.0, "s_h0": 100.0, "s_t0": 28.75, "timestamp": "2024-10-16T06:25:09Z", "device_id": "74DA38F6FF22", "c_d0": "N/A", "c_d0_method": "N/A"}, {"time": "06:26:24", "SiteName": "\u50d1\u4fe1\u8def109\u3001120\u5df7\u53e3", "app": "AirBox", "area": "new_taipei", "date": "2024-10-16", "gps_alt": 2.0, "gps_fix": 1.0, "gps_lat": 24.946, "gps_lon": 121.5, "gps_num": 9.0, "name": "\u50d1\u4fe1\u8def109\u3001120\u5df7\u53e3", "s_d0": 1.0, "s_d1": 2.0, "s_d2": 0.0, "s_h0": 100.0, "s_t0": 28.0, "timestamp": "2024-10-16T06:26:24Z", "device_id": "74DA38F6FF20", "c_d0": "N/A", "c_d0_method": "N/A"}, {"time": "06:23:56", "SiteName": "Ru ", "app": "AirBox", "area": "new_taipei", "date": "2024-10-16", "gps_alt": 2.0, "gps_fix": 1.0, "gps_lat": 25.07, "gps_lon": 121.492, "gps_num": 9.0, "name": "Ru ", "s_d0": 7.0, "s_d1": 7.0, "s_d2": 5.0, "s_h0": 65.0, "s_t0": 27.87, "timestamp": "2024-10-16T06:23:56Z", "device_id": "74DA38F6FF12", "c_d0": "N/A", "c_d0_method": "N/A"}, {"time": "06:22:26", "SiteName": "NCTUFL", "app": "AirBox", "area": "hsinchu_city", "date": "2024-10-16", "gps_alt": 2.0, "gps_fix": 1.0, "gps_lat": 24.787, "gps_lon": 121.0, "gps_num": 9.0, "name": "NCTUFL", "s_d0": 3.0, "s_d1": 3.0, "s_d2": 2.0, "s_h0": 45.0, "s_t0": 32.61, "timestamp": "2024-10-16T06:22:26Z", "device_id": "74DA38F6FF10", "c_d0": "N/A", "c_d0_method": "N/A"}, {"time": "06:26:46", "SiteName": "\u57d4\u91cc\u5fe0\u5b5d\u570b\u5c0f02", "app": "AirBox", "area": "nantou", "date": "2024-10-16", "gps_alt": 2.0, "gps_fix": 1.0, "gps_lat": 23.991, "gps_lon": 120.98, "gps_num": 9.0, "name": "\u57d4\u91cc\u5fe0\u5b5d\u570b\u5c0f02", "s_d0": 46.0, "s_d1": 57.0, "s_d2": 29.0, "s_h0": 64.0, "s_t0": 30.25, "timestamp": "2024-10-16T06:26:46Z", "device_id": "74DA38F6FF08", "c_d0": "N/A", "c_d0_method": "N/A"}, {"time": "06:22:18", "SiteName": "\u726f\u5dba\u8857", "app": "AirBox", "area": "taipei", "date": "2024-10-16", "gps_alt": 2.0, "gps_fix": 1.0, "gps_lat": 25.024, "gps_lon": 121.513, "gps_num": 9.0, "name": "\u726f\u5dba\u8857", "s_d0": 15.0, "s_d1": 16.0, "s_d2": 10.0, "s_h0": 100.0, "s_t0": 27.12, "timestamp": "2024-10-16T06:22:18Z", "device_id": "74DA38F6FEF6", "c_d0": "N/A", "c_d0_method": "N/A"}, {"time": "06:23:39", "SiteName": "fhshbio", "app": "AirBox", "area": "taipei", "date": "2024-10-16", "gps_alt": 2.0, "gps_fix": 1.0, "gps_lat": 25.143, "gps_lon": 121.503, "gps_num": 9.0, "name": "fhshbio", "s_d0": 7.0, "s_d1": 8.0, "s_d2": 5.0, "s_h0": 100.0, "s_t0": 27.5, "timestamp": "2024-10-16T06:23:39Z", "device_id": "74DA38F6FECC", "c_d0": "N/A", "c_d0_method": "N/A"}, {"time": "06:26:03", "SiteName": "\u6c84\u6c34\u570b\u5c0f\u5317\u4e8c", "app": "AirBox", "area": "chiayi_county", "date": "2024-10-16", "gps_alt": 2.0, "gps_fix": 1.0, "gps_lat": 23.381, "gps_lon": 120.53, "gps_num": 9.0, "name": "\u6c84\u6c34\u570b\u5c0f\u5317\u4e8c", "s_d0": 32.0, "s_d1": 35.0, "s_d2": 22.0, "s_h0": 100.0, "s_t0": 30.11, "timestamp": "2024-10-16T06:26:03Z", "device_id": "74DA38F6FECA", "c_d0": "N/A", "c_d0_method": "N/A"}, {"time": "06:22:19", "SiteName": "\u660e\u6b631\u865f", "app": "AirBox", "area": "changhua", "date": "2024-10-16", "gps_alt": 2.0, "gps_fix": 1.0, "gps_lat": 24.027, "gps_lon": 120.492, "gps_num": 9.0, "name": "\u660e\u6b631\u865f", "s_d0": 20.0, "s_d1": 22.0, "s_d2": 13.0, "s_h0": 65.0, "s_t0": 26.0, "timestamp": "2024-10-16T06:22:19Z", "device_id": "74DA38F6FEC8", "c_d0": "N/A", "c_d0_method": "N/A"}, {"time": "06:26:27", "SiteName": "\u9ad8\u96c4\u79c1\u7acb\u4e09\u4fe1\u5bb6\u5546", "app": "AirBox", "area": "kaohsiung", "date": "2024-10-16", "gps_alt": 2.0, "gps_fix": 1.0, "gps_lat": 22.622, "gps_lon": 120.328, "gps_num": 9.0, "name": "\u9ad8\u96c4\u79c1\u7acb\u4e09\u4fe1\u5bb6\u5546", "s_d0": 18.0, "s_d1": 19.0, "s_d2": 13.0, "s_h0": 0.0, "s_t0": -4.0, "timestamp": "2024-10-16T06:26:27Z", "device_id": "74DA38F6FEC2", "c_d0": "N/A", "c_d0_method": "N/A"}, {"time": "06:24:36", "SiteName": "FXing", "app": "AirBox", "area": "taipei", "date": "2024-10-16", "gps_alt": 2.0, "gps_fix": 1.0, "gps_lat": 25.137, "gps_lon": 121.484, "gps_num": 9.0, "name": "FXing", "s_d0": 10.0, "s_d1": 10.0, "s_d2": 7.0, "s_h0": 85.0, "s_t0": 28.36, "timestamp": "2024-10-16T06:24:36Z", "device_id": "74DA38F6FEC0", "c_d0": "N/A", "c_d0_method": "N/A"}, {"time": "06:25:01", "SiteName": "\u5de6\u93ae\u570b\u4e2d2", "app": "AirBox", "area": "tainan", "date": "2024-10-16", "gps_alt": 2.0, "gps_fix": 1.0, "gps_lat": 23.057, "gps_lon": 120.41, "gps_num": 9.0, "name": "\u5de6\u93ae\u570b\u4e2d2", "s_d0": 20.0, "s_d1": 22.0, "s_d2": 15.0, "s_h0": 72.0, "s_t0": 31.61, "timestamp": "2024-10-16T06:25:01Z", "device_id": "74DA38F6FEB6", "c_d0": "N/A", "c_d0_method": "N/A"}, {"time": "06:26:51", "SiteName": "\u5de6\u93ae\u570b\u4e2d\u7a7a\u6c23\u54c1\u8cea\u76e3\u6e2c", "app": "AirBox", "area": "tainan", "date": "2024-10-16", "gps_alt": 2.0, "gps_fix": 1.0, "gps_lat": 23.056, "gps_lon": 120.41, "gps_num": 9.0, "name": "\u5de6\u93ae\u570b\u4e2d\u7a7a\u6c23\u54c1\u8cea\u76e3\u6e2c", "s_d0": 26.0, "s_d1": 27.0, "s_d2": 19.0, "s_h0": 100.0, "s_t0": 33.5, "timestamp": "2024-10-16T06:26:51Z", "device_id": "74DA38F6FEAE", "c_d0": "N/A", "c_d0_method": "N/A"}, {"time": "06:24:50", "SiteName": "\u6c84\u6c34\u570b\u5c0f \u6771\u68df\u6559\u5ba4", "app": "AirBox", "area": "chiayi_county", "date": "2024-10-16", "gps_alt": 2.0, "gps_fix": 1.0, "gps_lat": 23.381, "gps_lon": 120.53, "gps_num": 9.0, "name": "\u6c84\u6c34\u570b\u5c0f \u6771\u68df\u6559\u5ba4", "s_d0": 22.0, "s_d1": 24.0, "s_d2": 14.0, "s_h0": 100.0, "s_t0": 29.5, "timestamp": "2024-10-16T06:24:50Z", "device_id": "74DA38F6FE94", "c_d0": "N/A", "c_d0_method": "N/A"}, {"time": "06:24:59", "SiteName": "joygold", "app": "AirBox", "area": "changhua", "date": "2024-10-16", "gps_alt": 2.0, "gps_fix": 1.0, "gps_lat": 24.082, "gps_lon": 120.54, "gps_num": 9.0, "name": "joygold", "s_d0": 16.0, "s_d1": 17.0, "s_d2": 11.0, "s_h0": 100.0, "s_t0": 31.86, "timestamp": "2024-10-16T06:24:59Z", "device_id": "74DA38F6FE6A", "c_d0": "N/A", "c_d0_method": "N/A"}, {"time": "06:22:25", "SiteAddr": "[964]\u53f0\u6771\u7e23\u91d1\u5cf0\u9109\u5609\u862d\u67513\u9130132\u865f", "SiteName": "\u53f0\u6771\u7e23\u7e23\u7acb\u5609\u862d\u570b\u5c0f(2018)", "app": "AirBox", "area": "new_taipei", "date": "2024-10-16", "gps_alt": 2.0, "gps_fix": 1.0, "gps_lat": 25.062, "gps_lon": 121.451, "gps_num": 9.0, "name": "\u81fa\u6771\u7e23\u91d1\u5cf0\u9109\u5609\u862d\u570b\u6c11\u5c0f\u5b78", "s_d0": 4.0, "s_d1": 4.0, "s_d2": 3.0, "s_h0": 100.0, "s_t0": 29.0, "timestamp": "2024-10-16T06:22:25Z", "device_id": "74DA38F21204", "c_d0": "N/A", "c_d0_method": "N/A"}, {"time": "06:23:35", "SiteAddr": "[209]\u9023\u6c5f\u7e23\u5357\u7aff\u9109\u4ec1\u611b\u675195\u865f", "SiteName": "\u9023\u6c5f\u7e23\u7e23\u7acb\u4ec1\u611b\u570b\u5c0f(2018)", "app": "AirBox", "area": "NA", "date": "2024-10-16", "gps_alt": 2.0, "gps_fix": 1.0, "gps_lat": 26.148, "gps_lon": 119.935, "gps_num": 9.0, "name": "\u4ec1\u611b\u570b\u5c0f\u7a7a\u6c23\u76d2", "s_d0": 45.0, "s_d1": 47.0, "s_d2": 27.0, "s_h0": 100.0, "s_t0": 28.11, "timestamp": "2024-10-16T06:23:35Z", "device_id": "74DA38F2118E", "c_d0": "N/A", "c_d0_method": "N/A"}, {"time": "06:24:54", "SiteAddr": "[950]\u81fa\u6771\u7e23\u81fa\u6771\u5e02\u4ec1\u4e03\u88571\u865f", "SiteName": "\u53f0\u6771\u7e23\u7e23\u7acb\u5bf6\u6851\u570b\u4e2d(2018)", "app": "AirBox", "area": "NA", "date": "2024-10-16", "gps_alt": 2.0, "gps_fix": 1.0, "gps_lat": 22.769, "gps_lon": 121.145, "gps_num": 9.0, "name": "\u53f0\u6771\u7e23\u7acb\u5bf6\u6851\u570b\u4e2d", "s_d0": 4.0, "s_d1": 4.0, "s_d2": 2.0, "s_h0": 64.0, "s_t0": 28.36, "timestamp": "2024-10-16T06:24:54Z", "device_id": "74DA38F21170", "c_d0": "N/A", "c_d0_method": "N/A"}, {"time": "06:27:17", "SiteAddr": "[954]\u81fa\u6771\u7e23\u5351\u5357\u9109\u660e\u5cf0\u6751\u5fe0\u5b5d\u8def2\u865f", "SiteName": "\u53f0\u6771\u7e23\u7e23\u7acb\u521d\u9e7f\u570b\u4e2d(2018)", "app": "AirBox", "area": "new_taipei", "date": "2024-10-16", "gps_alt": 2.0, "gps_fix": 1.0, "gps_lat": 22.85, "gps_lon": 121.092, "gps_num": 9.0, "name": "\u81fa\u6771\u7e23\u7acb\u521d\u9e7f\u570b\u6c11\u4e2d\u5b78", "s_d0": 5.0, "s_d1": 5.0, "s_d2": 3.0, "s_h0": 84.0, "s_t0": 28.61, "timestamp": "2024-10-16T06:27:17Z", "device_id": "74DA38F2116A", "c_d0": "N/A", "c_d0_method": "N/A"}, {"time": "06:26:19", "SiteAddr": "[956]\u81fa\u6771\u7e23\u95dc\u5c71\u93ae\u5d01\u9802\u8def22\u865f", "SiteName": "\u53f0\u6771\u7e23\u7e23\u7acb\u95dc\u5c71\u570b\u4e2d(2018)", "app": "AirBox", "area": "taitung", "date": "2024-10-16", "gps_alt": 2.0, "gps_fix": 1.0, "gps_lat": 23.045, "gps_lon": 121.159, "gps_num": 9.0, "name": "\u53f0\u6771\u7e23\u7acb\u95dc\u5c71\u570b\u4e2d", "s_d0": 5.0, "s_d1": 5.0, "s_d2": 3.0, "s_h0": 68.0, "s_t0": 28.5, "timestamp": "2024-10-16T06:26:19Z", "device_id": "74DA38F21164", "c_d0": "N/A", "c_d0_method": "N/A"}, {"time": "06:21:25", "SiteAddr": "\u81fa\u5317\u5e02\u58eb\u6797\u5340\u862d\u8208\u91cc\u78fa\u6eaa\u885757\u865f", "SiteName": "\u5e02\u7acb\u862d\u96c5\u570b\u5c0f(2018)", "app": "AirBox", "area": "NA", "date": "2024-10-16", "gps_alt": 2.0, "gps_fix": 1.0, "gps_lat": 25.108, "gps_lon": 121.523, "gps_num": 9.0, "name": "\u81fa\u5317\u5e02\u862d\u96c5\u570b\u6c11\u5c0f\u5b78", "s_d0": 3.0, "s_d1": 3.0, "s_d2": 1.0, "s_h0": 100.0, "s_t0": 27.12, "timestamp": "2024-10-16T06:21:25Z", "device_id": "74DA38F2115E", "c_d0": "N/A", "c_d0_method": "N/A"}, {"time": "06:21:08", "SiteAddr": "\u9ad8\u96c4\u5e02\u7acb\u5de6\u71df\u570b\u6c11\u4e2d\u5b78 \u9ad8\u96c4\u5e02\u5de6\u71df\u5340\u65b0\u5149\u91cc\u66fe\u5b50\u8def281\u865f", "SiteName": "\u9ad8\u96c4\u5e02\u5e02\u7acb\u5de6\u71df\u570b\u4e2d(2018)", "app": "AirBox", "area": "kaohsiung", "date": "2024-10-16", "gps_alt": 2.0, "gps_fix": 1.0, "gps_lat": 22.679, "gps_lon": 120.306, "gps_num": 9.0, "name": "\u5de6\u71df\u570b\u4e2d", "s_d0": 0.0, "s_d1": 0.0, "s_d2": 0.0, "s_h0": 100.0, "s_t0": 29.11, "timestamp": "2024-10-16T06:21:08Z", "device_id": "74DA38F21158", "c_d0": "N/A", "c_d0_method": "N/A"}, {"time": "06:26:18", "SiteAddr": "\u9ad8\u96c4\u5e02\u7acb\u5bf6\u4f86\u570b\u6c11\u4e2d\u5b78 \u9ad8\u96c4\u5e02\u516d\u9f9c\u5340\u5bf6\u4f86\u91cc\u4e2d\u6b63\u8def137\u865f", "SiteName": "\u9ad8\u96c4\u5e02\u5e02\u7acb\u5bf6\u4f86\u570b\u4e2d(2018)", "app": "AirBox", "area": "NA", "date": "2024-10-16", "gps_alt": 2.0, "gps_fix": 1.0, "gps_lat": 23.109, "gps_lon": 120.703, "gps_num": 9.0, "name": "\u5bf6\u4f86\u570b\u4e2d", "s_d0": 25.0, "s_d1": 27.0, "s_d2": 14.0, "s_h0": 100.0, "s_t0": 28.0, "timestamp": "2024-10-16T06:26:18Z", "device_id": "74DA38F21150", "c_d0": "N/A", "c_d0_method": "N/A"}, {"time": "06:25:23", "SiteAddr": "\u4ec1\u6b66\u7279\u6b8a\u6559\u80b2\u5b78\u6821", "SiteName": "\u9ad8\u96c4\u5e02\u4ec1\u6b66\u7279\u6b8a\u6559\u80b2\u5b78\u6821(2018)", "app": "AirBox", "area": "kaohsiung", "date": "2024-10-16", "gps_alt": 2.0, "gps_fix": 1.0, "gps_lat": 22.683, "gps_lon": 120.346, "gps_num": 9.0, "name": "\u9ad8\u96c4\u5e02\u7acb\u4ec1\u6b66\u7279\u6b8a\u6559\u80b2\u5b78\u6821", "s_d0": 16.0, "s_d1": 17.0, "s_d2": 10.0, "s_h0": 73.0, "s_t0": 28.86, "timestamp": "2024-10-16T06:25:23Z", "device_id": "74DA38F21146", "c_d0": "N/A", "c_d0_method": "N/A"}, {"time": "06:21:46", "SiteAddr": "\u6960\u6893\u7279\u6b8a\u5b78\u6821", "SiteName": "\u9ad8\u96c4\u5e02\u6960\u6893\u7279\u6b8a\u5b78\u6821(2018)", "app": "AirBox", "area": "kaohsiung", "date": "2024-10-16", "gps_alt": 2.0, "gps_fix": 1.0, "gps_lat": 22.728, "gps_lon": 120.313, "gps_num": 9.0, "name": "\u9ad8\u96c4\u5e02\u7acb\u6960\u6893\u7279\u6b8a\u5b78\u6821", "s_d0": 0.0, "s_d1": 0.0, "s_d2": 0.0, "s_h0": -6.0, "s_t0": 25.87, "timestamp": "2024-10-16T06:21:46Z", "device_id": "74DA38F2113E", "c_d0": "N/A", "c_d0_method": "N/A"}, {"time": "06:26:33", "SiteAddr": "\u81fa\u5317\u5e02\u5317\u6295\u5340\u7acb\u8fb2\u91cc\u7acb\u8fb2\u88571\u6bb5250\u865f", "SiteName": "\u5e02\u7acb\u7acb\u8fb2\u570b\u5c0f(2018)", "app": "AirBox", "area": "taipei", "date": "2024-10-16", "gps_alt": 2.0, "gps_fix": 1.0, "gps_lat": 25.119, "gps_lon": 121.505, "gps_num": 9.0, "name": "\u81fa\u5317\u5e02\u5317\u6295\u5340\u7acb\u8fb2\u570b\u5c0f2018", "s_d0": 10.0, "s_d1": 11.0, "s_d2": 5.0, "s_h0": 100.0, "s_t0": 26.87, "timestamp": "2024-10-16T06:26:33Z", "device_id": "74DA38F21136", "c_d0": "N/A", "c_d0_method": "N/A"}, {"time": "06:26:45", "SiteAddr": "\u9ad8\u96c4\u5e02\u7acb\u9ad8\u96c4\u7279\u6b8a\u5b78\u6821 \u9ad8\u96c4\u5e02\u82d3\u96c5\u5340\u61b2\u653f\u8def233\u5df72\u865f", "SiteName": "\u9ad8\u96c4\u5e02\u5e02\u7acb\u9ad8\u96c4\u7279\u6b8a\u5b78\u6821(2018)", "app": "AirBox", "area": "kaohsiung", "date": "2024-10-16", "gps_alt": 2.0, "gps_fix": 1.0, "gps_lat": 22.635, "gps_lon": 120.322, "gps_num": 9.0, "name": "\u82d3\u96c5\u5340\u9ad8\u96c4\u7279\u6559", "s_d0": 8.0, "s_d1": 9.0, "s_d2": 5.0, "s_h0": 61.0, "s_t0": 28.61, "timestamp": "2024-10-16T06:26:45Z", "device_id": "74DA38F21100", "c_d0": "N/A", "c_d0_method": "N/A"}, {"time": "06:22:19", "SiteAddr": "\u9ad8\u96c4\u5e02\u7acb\u5ca1\u5c71\u570b\u6c11\u4e2d\u5b78 \u9ad8\u96c4\u5e02\u5ca1\u5c71\u5340\u5f8c\u7d05\u91cc\u5ca1\u71d5\u8def238\u865f", "SiteName": "\u9ad8\u96c4\u5e02\u5e02\u7acb\u5ca1\u5c71\u570b\u4e2d(2018)", "app": "AirBox", "area": "new_taipei", "date": "2024-10-16", "gps_alt": 2.0, "gps_fix": 1.0, "gps_lat": 22.791, "gps_lon": 120.303, "gps_num": 9.0, "name": "\u9ad8\u96c4\u5e02\u5ca1\u5c71\u5340\u5ca1\u5c71\u570b\u4e2d", "s_d0": 15.0, "s_d1": 15.0, "s_d2": 10.0, "s_h0": 100.0, "s_t0": 30.0, "timestamp": "2024-10-16T06:22:19Z", "device_id": "74DA38F210F0", "c_d0": "N/A", "c_d0_method": "N/A"}, {"time": "06:21:16", "SiteAddr": "\u9ad8\u96c4\u5e02\u7acb\u90a3\u746a\u590f\u570b\u6c11\u4e2d\u5b78 \u9ad8\u96c4\u5e02\u90a3\u746a\u590f\u5340\u746a\u96c5\u91cc\u5e73\u548c\u5df7171\u865f", "SiteName": "\u9ad8\u96c4\u5e02\u5e02\u7acb\u90a3\u746a\u590f\u570b\u4e2d(2018)", "app": "AirBox", "area": "NA", "date": "2024-10-16", "gps_alt": 2.0, "gps_fix": 1.0, "gps_lat": 23.24, "gps_lon": 120.696, "gps_num": 9.0, "name": "\u9ad8\u96c4\u5e02\u90a3\u746a\u590f\u5340\u90a3\u746a\u590f\u570b\u4e2d", "s_d0": 9.0, "s_d1": 10.0, "s_d2": 5.0, "s_h0": 100.0, "s_t0": 26.0, "timestamp": "2024-10-16T06:21:16Z", "device_id": "74DA38F210E4", "c_d0": "N/A", "c_d0_method": "N/A"}, {"time": "06:23:53", "SiteAddr": "\u81fa\u5317\u5e02\u5317\u6295\u5340\u4e00\u5fb7\u91cc\u4e2d\u592e\u5317\u8def4\u6bb5581\u865f", "SiteName": "\u5e02\u7acb\u95dc\u6e21\u570b\u5c0f(2018)", "app": "AirBox", "area": "taipei", "date": "2024-10-16", "gps_alt": 2.0, "gps_fix": 1.0, "gps_lat": 25.12, "gps_lon": 121.466, "gps_num": 9.0, "name": "\u81fa\u5317\u5e02\u5317\u6295\u5340\u95dc\u6e21\u570b\u5c0f2018", "s_d0": 1.0, "s_d1": 1.0, "s_d2": 0.0, "s_h0": 100.0, "s_t0": 26.5, "timestamp": "2024-10-16T06:23:53Z", "device_id": "74DA38F210A2", "c_d0": "N/A", "c_d0_method": "N/A"}, {"time": "06:27:01", "SiteAddr": "\u81fa\u5317\u5e02\u58eb\u6797\u5340\u660e\u52dd\u91cc\u901a\u6cb3\u885716\u865f", "SiteName": "\u5e02\u7acb\u528d\u6f6d\u570b\u5c0f(2018)", "app": "AirBox", "area": "taipei", "date": "2024-10-16", "gps_alt": 2.0, "gps_fix": 1.0, "gps_lat": 25.075, "gps_lon": 121.519, "gps_num": 9.0, "name": "\u53f0\u5317\u5e02\u58eb\u6797\u5340\u528d\u6f6d\u570b\u5c0f2018", "s_d0": 8.0, "s_d1": 8.0, "s_d2": 4.0, "s_h0": 100.0, "s_t0": 26.75, "timestamp": "2024-10-16T06:27:01Z", "device_id": "74DA38F21094", "c_d0": "N/A", "c_d0_method": "N/A"}, {"time": "06:21:51", "SiteAddr": "\u81fa\u5317\u5e02\u5167\u6e56\u5340\u6e56\u8208\u91cc\u6c11\u6b0a\u6771\u8def6\u6bb5138\u865f", "SiteName": "\u5e02\u7acb\u65b0\u6e56\u570b\u5c0f(2018)", "app": "AirBox", "area": "taipei", "date": "2024-10-16", "gps_alt": 2.0, "gps_fix": 1.0, "gps_lat": 25.068, "gps_lon": 121.588, "gps_num": 9.0, "name": "\u53f0\u5317\u5e02\u5167\u6e56\u5340\u65b0\u6e56\u570b\u5c0f2018", "s_d0": 0.0, "s_d1": 0.0, "s_d2": 0.0, "s_h0": 100.0, "s_t0": 26.37, "timestamp": "2024-10-16T06:21:51Z", "device_id": "74DA38F21088", "c_d0": "N/A", "c_d0_method": "N/A"}, {"time": "06:26:31", "SiteAddr": "\u9ad8\u96c4\u5e02\u660e\u5fb7\u570b\u5c0f \u9ad8\u96c4\u5e02\u5de6\u71df\u5340\u6d77\u5bcc\u8def2\u865f", "SiteName": "\u9ad8\u96c4\u5e02\u5e02\u7acb\u660e\u5fb7\u570b\u5c0f(2018)", "app": "AirBox", "area": "kaohsiung", "date": "2024-10-16", "gps_alt": 2.0, "gps_fix": 1.0, "gps_lat": 22.688, "gps_lon": 120.29, "gps_num": 9.0, "name": "9-14\u9ad8\u96c4\u5e02\u7acb\u660e\u5fb7\u570b\u5c0f", "s_d0": 0.0, "s_d1": 0.0, "s_d2": 0.0, "s_h0": 93.0, "s_t0": 30.25, "timestamp": "2024-10-16T06:26:31Z", "device_id": "74DA38F2105E", "c_d0": "N/A", "c_d0_method": "N/A"}, {"time": "06:24:42", "SiteAddr": "\u9ad8\u96c4\u5e02\u65b0\u5a01\u570b\u5c0f \u9ad8\u96c4\u5e02\u516d\u9f9c\u5340\u65b0\u8208\u91cc\u65b0\u5a01212\u865f", "SiteName": "\u9ad8\u96c4\u5e02\u5e02\u7acb\u65b0\u5a01\u570b\u5c0f(2018)", "app": "AirBox", "area": "kaohsiung", "date": "2024-10-16", "gps_alt": 2.0, "gps_fix": 1.0, "gps_lat": 22.898, "gps_lon": 120.627, "gps_num": 9.0, "name": "New\u9ad8\u96c4\u5e02\u516d\u9f9c\u5340\u65b0\u5a01\u570b\u5c0f", "s_d0": 26.0, "s_d1": 26.0, "s_d2": 17.0, "s_h0": 65.0, "s_t0": 25.75, "timestamp": "2024-10-16T06:24:42Z", "device_id": "74DA38F21054", "c_d0": "N/A", "c_d0_method": "N/A"}, {"time": "05:38:39", "SiteAddr": "\u9ad8\u96c4\u5e02\u5bf6\u4f86\u570b\u5c0f \u9ad8\u96c4\u5e02\u516d\u9f9c\u5340\u5bf6\u4f86\u91cc\u4e2d\u6b63\u8def89\u865f", "SiteName": "\u9ad8\u96c4\u5e02\u5e02\u7acb\u5bf6\u4f86\u570b\u5c0f(2018)", "app": "AirBox", "area": "kaohsiung", "date": "2024-10-16", "gps_alt": 2.0, "gps_fix": 1.0, "gps_lat": 23.108, "gps_lon": 120.7, "gps_num": 9.0, "name": "107\u5bf6\u4f86\u570b\u5c0f", "s_d0": 30.0, "s_d1": 33.0, "s_d2": 19.0, "s_h0": 100.0, "s_t0": 29.5, "timestamp": "2024-10-16T05:38:39Z", "device_id": "74DA38F2104E", "c_d0": "N/A", "c_d0_method": "N/A"}, {"time": "06:26:46", "SiteAddr": "\u9ad8\u96c4\u5e02\u8def\u7af9\u570b\u5c0f \u9ad8\u96c4\u5e02\u8def\u7af9\u5340\u4e2d\u5c71\u8def712\u5df716\u865f", "SiteName": "\u9ad8\u96c4\u5e02\u5e02\u7acb\u8def\u7af9\u570b\u5c0f(2018)", "app": "AirBox", "area": "kaohsiung", "date": "2024-10-16", "gps_alt": 2.0, "gps_fix": 1.0, "gps_lat": 22.856, "gps_lon": 120.259, "gps_num": 9.0, "name": "\u9ad8\u96c4\u5e02\u8def\u7af9\u5340\u8def\u7af9\u570b\u5c0f", "s_d0": 0.0, "s_d1": 0.0, "s_d2": 0.0, "s_h0": 100.0, "s_t0": 30.61, "timestamp": "2024-10-16T06:26:46Z", "device_id": "74DA38F21042", "c_d0": "N/A", "c_d0_method": "N/A"}, {"time": "06:21:14", "SiteAddr": "\u9ad8\u96c4\u5e02\u4e2d\u8def\u570b\u5c0f \u9ad8\u96c4\u5e02\u963f\u84ee\u5340\u4e2d\u8def\u91cc272\u865f", "SiteName": "\u9ad8\u96c4\u5e02\u5e02\u7acb\u4e2d\u8def\u570b\u5c0f(2018)", "app": "AirBox", "area": "kaohsiung", "date": "2024-10-16", "gps_alt": 2.0, "gps_fix": 1.0, "gps_lat": 22.894, "gps_lon": 120.298, "gps_num": 9.0, "name": "zlp", "s_d0": 14.0, "s_d1": 15.0, "s_d2": 9.0, "s_h0": 100.0, "s_t0": 29.86, "timestamp": "2024-10-16T06:21:14Z", "device_id": "74DA38F20FFE", "c_d0": "N/A", "c_d0_method": "N/A"}, {"time": "06:27:08", "SiteAddr": "\u9ad8\u96c4\u5e02\u5b89\u62db\u570b\u5c0f \u9ad8\u96c4\u5e02\u71d5\u5de2\u5340\u74ca\u6797\u91cc\u5b89\u62db\u8def170\u865f", "SiteName": "\u9ad8\u96c4\u5e02\u5e02\u7acb\u5b89\u62db\u570b\u5c0f(2018)", "app": "AirBox", "area": "NA", "date": "2024-10-16", "gps_alt": 2.0, "gps_fix": 1.0, "gps_lat": 22.79, "gps_lon": 120.337, "gps_num": 9.0, "name": "\u9ad8\u96c4\u5e02\u71d5\u5de2\u5340\u5b89\u62db\u570b\u5c0f", "s_d0": 0.0, "s_d1": 0.0, "s_d2": 0.0, "s_h0": 100.0, "s_t0": 29.5, "timestamp": "2024-10-16T06:27:08Z", "device_id": "74DA38F20FE8", "c_d0": "N/A", "c_d0_method": "N/A"}, {"time": "06:25:16", "SiteAddr": "\u9ad8\u96c4\u5e02\u6587\u5e9c\u570b\u5c0f \u9ad8\u96c4\u5e02\u5de6\u71df\u5340\u6587\u5e9c\u8def399\u865f", "SiteName": "\u9ad8\u96c4\u5e02\u5e02\u7acb\u6587\u5e9c\u570b\u5c0f(2018)", "app": "AirBox", "area": "new_taipei", "date": "2024-10-16", "gps_alt": 2.0, "gps_fix": 1.0, "gps_lat": 22.692, "gps_lon": 120.314, "gps_num": 9.0, "name": "wfpsairbox2", "s_d0": 3.0, "s_d1": 4.0, "s_d2": 2.0, "s_h0": 100.0, "s_t0": 28.75, "timestamp": "2024-10-16T06:25:16Z", "device_id": "74DA38F20FDA", "c_d0": "N/A", "c_d0_method": "N/A"}, {"time": "06:21:22", "SiteAddr": "\u9ad8\u96c4\u5e02\u4e09\u6c11\u570b\u5c0f \u9ad8\u96c4\u5e02\u4e09\u6c11\u5340\u5efa\u570b\u4e09\u8def216\u865f", "SiteName": "\u9ad8\u96c4\u5e02\u5e02\u7acb\u4e09\u6c11\u570b\u5c0f(2018)", "app": "AirBox", "area": "kaohsiung", "date": "2024-10-16", "gps_alt": 2.0, "gps_fix": 1.0, "gps_lat": 22.636, "gps_lon": 120.291, "gps_num": 9.0, "name": "\u9ad8\u96c4\u5e02\u4e09\u6c11\u5340\u4e09\u6c11\u570b\u6c11\u5c0f\u5b78", "s_d0": 10.0, "s_d1": 11.0, "s_d2": 6.0, "s_h0": 100.0, "s_t0": 30.25, "timestamp": "2024-10-16T06:21:22Z", "device_id": "74DA38F20FCA", "c_d0": "N/A", "c_d0_method": "N/A"}, {"time": "05:30:03", "SiteAddr": "\u9ad8\u96c4\u5e02\u4ed5\u9686\u570b\u5c0f \u9ad8\u96c4\u5e02\u6a4b\u982d\u5340\u4ed5\u9686\u8def\u9032\u6821\u5df716\u865f", "SiteName": "\u9ad8\u96c4\u5e02\u5e02\u7acb\u4ed5\u9686\u570b\u5c0f(2018)", "app": "AirBox", "area": "kaohsiung", "date": "2024-10-16", "gps_alt": 2.0, "gps_fix": 1.0, "gps_lat": 22.751, "gps_lon": 120.311, "gps_num": 9.0, "name": "\u9ad8\u96c4\u5e02\u6a4b\u982d\u5340\u4ed5\u9686\u570b\u5c0fnew", "s_d0": 12.0, "s_d1": 13.0, "s_d2": 7.0, "s_h0": 100.0, "s_t0": 29.36, "timestamp": "2024-10-16T05:30:03Z", "device_id": "74DA38F20FB0", "c_d0": "N/A", "c_d0_method": "N/A"}, {"time": "06:21:39", "SiteAddr": "\u9ad8\u96c4\u5e02\u6eaa\u5bee\u570b\u5c0f \u9ad8\u96c4\u5e02\u5927\u5bee\u5340\u6eaa\u5bee\u91cc\u6eaa\u5bee\u8def69\u865f", "SiteName": "\u9ad8\u96c4\u5e02\u5e02\u7acb\u6eaa\u5bee\u570b\u5c0f(2018)", "app": "AirBox", "area": "kaohsiung", "date": "2024-10-16", "gps_alt": 2.0, "gps_fix": 1.0, "gps_lat": 22.63, "gps_lon": 120.42, "gps_num": 9.0, "name": "\u9ad8\u96c4\u5e02\u6eaa\u5bee\u6821", "s_d0": 18.0, "s_d1": 19.0, "s_d2": 12.0, "s_h0": 100.0, "s_t0": 33.86, "timestamp": "2024-10-16T06:21:39Z", "device_id": "74DA38F20FA4", "c_d0": "N/A", "c_d0_method": "N/A"}, {"time": "06:26:26", "SiteAddr": "[880]\u6f8e\u6e56\u7e23\u99ac\u516c\u5e02\u897f\u6587\u91cc\u4e2d\u83ef\u8def326\u865f", "SiteName": "\u6f8e\u6e56\u7e23\u7e23\u7acb\u99ac\u516c\u570b\u4e2d(2018)", "app": "AirBox", "area": "penghu", "date": "2024-10-16", "gps_alt": 2.0, "gps_fix": 1.0, "gps_lat": 23.569, "gps_lon": 119.581, "gps_num": 9.0, "name": "Mkjhairbox", "s_d0": 0.0, "s_d1": 0.0, "s_d2": 0.0, "s_h0": 100.0, "s_t0": 29.11, "timestamp": "2024-10-16T06:26:26Z", "device_id": "74DA38F20F98", "c_d0": "N/A", "c_d0_method": "N/A"}, {"time": "06:22:19", "SiteAddr": "\u9ad8\u96c4\u5e02\u9752\u5c71\u570b\u5c0f \u9ad8\u96c4\u5e02\u5c0f\u6e2f\u5340\u98db\u6a5f\u8def153\u865f", "SiteName": "\u9ad8\u96c4\u5e02\u5e02\u7acb\u9752\u5c71\u570b\u5c0f(2018)", "app": "AirBox", "area": "kaohsiung", "date": "2024-10-16", "gps_alt": 2.0, "gps_fix": 1.0, "gps_lat": 22.573, "gps_lon": 120.36, "gps_num": 9.0, "name": "\u9ad8\u96c4\u5e02\u5c0f\u6e2f\u5340\u9752\u5c71\u570b\u5c0f1", "s_d0": 0.0, "s_d1": 0.0, "s_d2": 0.0, "s_h0": 90.0, "s_t0": 31.11, "timestamp": "2024-10-16T06:22:19Z", "device_id": "74DA38F20F68", "c_d0": "N/A", "c_d0_method": "N/A"}, {"time": "06:24:29", "SiteAddr": "\u81fa\u5317\u5e02\u5167\u6e56\u5340\u884c\u5584\u8def179\u865f", "SiteName": "\u5e02\u7acb\u6f6d\u7f8e\u570b\u5c0f(2018)", "app": "AirBox", "area": "taipei", "date": "2024-10-16", "gps_alt": 2.0, "gps_fix": 1.0, "gps_lat": 25.078, "gps_lon": 121.587, "gps_num": 9.0, "name": "\u53f0\u5317\u5e02\u5167\u6e56\u5340\u6f6d\u7f8e\u570b\u5c0f2018", "s_d0": 14.0, "s_d1": 16.0, "s_d2": 8.0, "s_h0": 0.0, "s_t0": -4.0, "timestamp": "2024-10-16T06:24:29Z", "device_id": "74DA38F20F64", "c_d0": "N/A", "c_d0_method": "N/A"}, {"time": "06:22:51", "SiteAddr": "\u81fa\u5317\u5e02\u5357\u6e2f\u5340\u4e09\u91cd\u91cc\u60e0\u6c11\u885767\u865f", "SiteName": "\u5e02\u7acb\u5357\u6e2f\u570b\u5c0f(2018)", "app": "AirBox", "area": "taipei", "date": "2024-10-16", "gps_alt": 2.0, "gps_fix": 1.0, "gps_lat": 25.057, "gps_lon": 121.61, "gps_num": 9.0, "name": "\u5357\u6e2f\u570b\u5c0f", "s_d0": 16.0, "s_d1": 17.0, "s_d2": 9.0, "s_h0": 91.0, "s_t0": 28.11, "timestamp": "2024-10-16T06:22:51Z", "device_id": "74DA38F20F4C", "c_d0": "N/A", "c_d0_method": "N/A"}, {"time": "06:24:10", "SiteAddr": "\u9ad8\u96c4\u5e02\u9e7d\u57d5\u570b\u5c0f \u9ad8\u96c4\u5e02\u9e7d\u57d5\u5340\u4e94\u798f\u56db\u8def183\u865f", "SiteName": "\u9ad8\u96c4\u5e02\u5e02\u7acb\u9e7d\u57d5\u570b\u5c0f(2018)", "app": "AirBox", "area": "kaohsiung", "date": "2024-10-16", "gps_alt": 2.0, "gps_fix": 1.0, "gps_lat": 22.623, "gps_lon": 120.282, "gps_num": 9.0, "name": "\u9ad8\u96c4\u5e02\u9e7d\u57d5\u570b\u5c0f", "s_d0": 0.0, "s_d1": 0.0, "s_d2": 0.0, "s_h0": 100.0, "s_t0": 29.11, "timestamp": "2024-10-16T06:24:10Z", "device_id": "74DA38F20F2C", "c_d0": "N/A", "c_d0_method": "N/A"}, {"time": "06:25:30", "SiteAddr": "\u9ad8\u96c4\u5e02\u4e5d\u5982\u570b\u5c0f \u9ad8\u96c4\u5e02\u9f13\u5c71\u5340\u4e5d\u5982\u56db\u8def763\u865f", "SiteName": "\u9ad8\u96c4\u5e02\u5e02\u7acb\u4e5d\u5982\u570b\u5c0f(2018)", "app": "AirBox", "area": "kaohsiung", "date": "2024-10-16", "gps_alt": 2.0, "gps_fix": 1.0, "gps_lat": 22.652, "gps_lon": 120.278, "gps_num": 9.0, "name": "\u9ad8\u96c4\u5e02\u4e5d\u5982\u570b\u5c0f02", "s_d0": 22.0, "s_d1": 25.0, "s_d2": 15.0, "s_h0": 100.0, "s_t0": 28.36, "timestamp": "2024-10-16T06:25:30Z", "device_id": "74DA38F20F1E", "c_d0": "N/A", "c_d0_method": "N/A"}, {"time": "06:27:03", "SiteAddr": "\u9ad8\u96c4\u5e02\u798f\u5b89\u570b\u5c0f \u9ad8\u96c4\u5e02\u7f8e\u6fc3\u5340\u798f\u5b89\u91cc\u4e2d\u5c71\u8def\u4e8c\u6bb5358\u865f", "SiteName": "\u9ad8\u96c4\u5e02\u5e02\u7acb\u798f\u5b89\u570b\u5c0f(2018)", "app": "AirBox", "area": "new_taipei", "date": "2024-10-16", "gps_alt": 2.0, "gps_fix": 1.0, "gps_lat": 25.062, "gps_lon": 121.451, "gps_num": 9.0, "name": "\u9ad8\u96c4\u5e02\u7f8e\u6fc3\u5340\u798f\u5b89\u570b\u5c0f", "s_d0": 0.0, "s_d1": 0.0, "s_d2": 0.0, "s_h0": 100.0, "s_t0": 31.36, "timestamp": "2024-10-16T06:27:03Z", "device_id": "74DA38F20F1C", "c_d0": "N/A", "c_d0_method": "N/A"}, {"time": "06:26:58", "SiteAddr": "\u9ad8\u96c4\u5e02\u65b0\u767c\u570b\u5c0f \u9ad8\u96c4\u5e02\u516d\u9f9c\u5340\u65b0\u767c\u91cc\u548c\u5e73\u8def130\u865f", "SiteName": "\u9ad8\u96c4\u5e02\u5e02\u7acb\u65b0\u767c\u570b\u5c0f(2018)", "app": "AirBox", "area": "kaohsiung", "date": "2024-10-16", "gps_alt": 2.0, "gps_fix": 1.0, "gps_lat": 22.995, "gps_lon": 120.635, "gps_num": 9.0, "name": "\u9ad8\u96c4\u5e02\u65b0\u767c\u570b\u6c11\u5c0f\u5b782", "s_d0": 19.0, "s_d1": 21.0, "s_d2": 12.0, "s_h0": 100.0, "s_t0": 29.25, "timestamp": "2024-10-16T06:26:58Z", "device_id": "74DA38F20F0A", "c_d0": "N/A", "c_d0_method": "N/A"}, {"time": "06:21:40", "SiteAddr": "\u9ad8\u96c4\u5e02\u4e8c\u82d3\u570b\u5c0f \u9ad8\u96c4\u5e02\u5c0f\u6e2f\u5340\u7acb\u7fa4\u8def6\u865f", "SiteName": "\u9ad8\u96c4\u5e02\u5e02\u7acb\u4e8c\u82d3\u570b\u5c0f(2018)", "app": "AirBox", "area": "kaohsiung", "date": "2024-10-16", "gps_alt": 2.0, "gps_fix": 1.0, "gps_lat": 22.564, "gps_lon": 120.353, "gps_num": 9.0, "name": "Pm25B", "s_d0": 16.0, "s_d1": 17.0, "s_d2": 11.0, "s_h0": 69.0, "s_t0": 26.0, "timestamp": "2024-10-16T06:21:40Z", "device_id": "74DA38F20EFA", "c_d0": "N/A", "c_d0_method": "N/A"}, {"time": "06:21:50", "SiteAddr": "\u9ad8\u96c4\u5e02\u9f8d\u83ef\u570b\u5c0f \u9ad8\u96c4\u5e02\u9f13\u5c71\u5340\u5927\u9806\u4e00\u8def858\u865f", "SiteName": "\u9ad8\u96c4\u5e02\u5e02\u7acb\u9f8d\u83ef\u570b\u5c0f(2018)", "app": "AirBox", "area": "kaohsiung", "date": "2024-10-16", "gps_alt": 2.0, "gps_fix": 1.0, "gps_lat": 22.655, "gps_lon": 120.298, "gps_num": 9.0, "name": "\u9f8d\u83ef\u570b\u5c0f2018", "s_d0": 20.0, "s_d1": 21.0, "s_d2": 13.0, "s_h0": 68.0, "s_t0": 36.0, "timestamp": "2024-10-16T06:21:50Z", "device_id": "74DA38F20ED4", "c_d0": "N/A", "c_d0_method": "N/A"}, {"time": "06:21:02", "SiteAddr": "\u9ad8\u96c4\u5e02\u7d05\u6bdb\u6e2f\u570b\u5c0f \u9ad8\u96c4\u5e02\u524d\u93ae\u5340\u660e\u9cf37\u88571\u865f", "SiteName": "\u9ad8\u96c4\u5e02\u5e02\u7acb\u7d05\u6bdb\u6e2f\u570b\u5c0f(2018)", "app": "AirBox", "area": "kaohsiung", "date": "2024-10-16", "gps_alt": 2.0, "gps_fix": 1.0, "gps_lat": 22.583, "gps_lon": 120.334, "gps_num": 9.0, "name": "\u9ad8\u96c4\u5e02\u524d\u93ae\u5340\u7d05\u6bdb\u6e2f\u570b\u6c11\u5c0f\u5b78-02", "s_d0": 18.0, "s_d1": 19.0, "s_d2": 12.0, "s_h0": 0.0, "s_t0": -4.0, "timestamp": "2024-10-16T06:21:02Z", "device_id": "74DA38F20EC8", "c_d0": "N/A", "c_d0_method": "N/A"}, {"time": "06:21:27", "SiteAddr": "[314]\u65b0\u7af9\u7e23\u5317\u57d4\u9109\u5916\u576a\u6751\u4e00\u91308\u865f", "SiteName": "\u65b0\u7af9\u7e23\u7e23\u7acb\u5927\u576a\u570b\u5c0f(2018)", "app": "AirBox", "area": "hsinchu_county", "date": "2024-10-16", "gps_alt": 2.0, "gps_fix": 1.0, "gps_lat": 24.324, "gps_lon": 120.835, "gps_num": 9.0, "name": "\u5eb7\u8317\u8fb2\u5834", "s_d0": 22.0, "s_d1": 24.0, "s_d2": 14.0, "s_h0": 100.0, "s_t0": 28.0, "timestamp": "2024-10-16T06:21:27Z", "device_id": "74DA38F20EB2", "c_d0": "N/A", "c_d0_method": "N/A"}, {"time": "06:21:36", "SiteAddr": "[311]\u65b0\u7af9\u7e23\u4e94\u5cf0\u9109\u82b1\u5712\u6751\u516b\u9130174\u865f", "SiteName": "\u65b0\u7af9\u7e23\u7e23\u7acb\u82b1\u5712\u570b\u5c0f(2018)", "app": "AirBox", "area": "hsinchu_county", "date": "2024-10-16", "gps_alt": 2.0, "gps_fix": 1.0, "gps_lat": 24.648, "gps_lon": 121.151, "gps_num": 9.0, "name": "\u65b0\u7af9\u7e23\u4e94\u5cf0\u9109\u82b1\u5712\u570b\u5c0f", "s_d0": 14.0, "s_d1": 16.0, "s_d2": 9.0, "s_h0": 100.0, "s_t0": 26.5, "timestamp": "2024-10-16T06:21:36Z", "device_id": "74DA38F20E9E", "c_d0": "N/A", "c_d0_method": "N/A"}, {"time": "06:26:40", "SiteAddr": "[364]\u82d7\u6817\u7e23\u5927\u6e56\u9109\u5927\u5357\u67517\u9130\u5927\u5357\u52e215\u865f", "SiteName": "\u82d7\u6817\u7e23\u7e23\u7acb\u5927\u5357\u570b\u5c0f(2018)", "app": "AirBox", "area": "miaoli", "date": "2024-10-16", "gps_alt": 2.0, "gps_fix": 1.0, "gps_lat": 24.41, "gps_lon": 120.902, "gps_num": 9.0, "name": "\u5927\u5357\u570b\u5c0f", "s_d0": 18.0, "s_d1": 20.0, "s_d2": 11.0, "s_h0": 91.0, "s_t0": 26.87, "timestamp": "2024-10-16T06:26:40Z", "device_id": "74DA38F20E6E", "c_d0": "N/A", "c_d0_method": "N/A"}, {"time": "06:21:17", "SiteAddr": "\u9ad8\u96c4\u5e02\u7acb\u4e94\u798f\u570b\u6c11\u4e2d\u5b78 \u9ad8\u96c4\u5e02\u82d3\u96c5\u5340\u5c1a\u7fa9\u91cc\u4e94\u798f\u4e00\u8def12\u865f", "SiteName": "\u9ad8\u96c4\u5e02\u5e02\u7acb\u4e94\u798f\u570b\u4e2d(2018)", "app": "AirBox", "area": "kaohsiung", "date": "2024-10-16", "gps_alt": 2.0, "gps_fix": 1.0, "gps_lat": 22.629, "gps_lon": 120.317, "gps_num": 9.0, "name": "\u9ad8\u96c4\u5e02\u4e94\u798f\u570b\u4e2d", "s_d0": 16.0, "s_d1": 17.0, "s_d2": 10.0, "s_h0": 100.0, "s_t0": 29.61, "timestamp": "2024-10-16T06:21:17Z", "device_id": "74DA38F20E44", "c_d0": "N/A", "c_d0_method": "N/A"}, {"time": "06:27:07", "SiteAddr": "\u9ad8\u96c4\u5e02\u7acb\u5927\u4ec1\u570b\u6c11\u4e2d\u5b78 \u9ad8\u96c4\u5e02\u82d3\u96c5\u5340\u4e94\u798f\u91cc\u5efa\u570b\u4e00\u8def148\u865f", "SiteName": "\u9ad8\u96c4\u5e02\u5e02\u7acb\u5927\u4ec1\u570b\u4e2d(2018)", "app": "AirBox", "area": "kaohsiung", "date": "2024-10-16", "gps_alt": 2.0, "gps_fix": 1.0, "gps_lat": 25.062, "gps_lon": 121.451, "gps_num": 9.0, "name": "\u9ad8\u96c4\u5e02\u7acb\u5927\u4ec1\u570b\u4e2d", "s_d0": 11.0, "s_d1": 11.0, "s_d2": 7.0, "s_h0": 69.0, "s_t0": 25.87, "timestamp": "2024-10-16T06:27:07Z", "device_id": "74DA38F20E40", "c_d0": "N/A", "c_d0_method": "N/A"}, {"time": "06:27:19", "SiteAddr": "\u9ad8\u96c4\u5e02\u7acb\u9f8d\u809a\u570b\u6c11\u4e2d\u5b78 \u9ad8\u96c4\u5e02\u7f8e\u6fc3\u5340\u9f8d\u5c71\u91cc\u4e2d\u83ef\u8def68\u865f", "SiteName": "\u9ad8\u96c4\u5e02\u5e02\u7acb\u9f8d\u809a\u570b\u4e2d(2018)", "app": "AirBox", "area": "kaohsiung", "date": "2024-10-16", "gps_alt": 2.0, "gps_fix": 1.0, "gps_lat": 22.878, "gps_lon": 120.57, "gps_num": 9.0, "name": "admin", "s_d0": 9.0, "s_d1": 9.0, "s_d2": 6.0, "s_h0": 53.0, "s_t0": 29.36, "timestamp": "2024-10-16T06:27:19Z", "device_id": "74DA38F20E3E", "c_d0": "N/A", "c_d0_method": "N/A"}, {"time": "06:25:36", "SiteAddr": "\u9ad8\u96c4\u5e02\u7acb\u5f8c\u52c1\u570b\u6c11\u4e2d\u5b78 \u9ad8\u96c4\u5e02\u6960\u6893\u5340\u91d1\u7530\u91cc\u52a0\u660c\u8def180\u865f", "SiteName": "\u9ad8\u96c4\u5e02\u5e02\u7acb\u5f8c\u52c1\u570b\u4e2d(2018)", "app": "AirBox", "area": "kaohsiung", "date": "2024-10-16", "gps_alt": 2.0, "gps_fix": 1.0, "gps_lat": 22.723, "gps_lon": 120.315, "gps_num": 9.0, "name": "\u9ad8\u96c4\u5e02\u6960\u6893\u5340\u5f8c\u52c1\u570b\u4e2d", "s_d0": 12.0, "s_d1": 13.0, "s_d2": 7.0, "s_h0": 100.0, "s_t0": 29.5, "timestamp": "2024-10-16T06:25:36Z", "device_id": "74DA38F20E2C", "c_d0": "N/A", "c_d0_method": "N/A"}, {"time": "06:22:38", "SiteAddr": "\u9ad8\u96c4\u5e02\u7acb\u53f3\u660c\u570b\u6c11\u4e2d\u5b78 \u9ad8\u96c4\u5e02\u6960\u6893\u5340\u8208\u660c\u91cc\u76db\u660c\u8857161\u865f", "SiteName": "\u9ad8\u96c4\u5e02\u5e02\u7acb\u53f3\u660c\u570b\u4e2d(2018)", "app": "AirBox", "area": "kaohsiung", "date": "2024-10-16", "gps_alt": 2.0, "gps_fix": 1.0, "gps_lat": 22.713, "gps_lon": 120.286, "gps_num": 9.0, "name": "\u9ad8\u96c4\u5e02\u6960\u6893\u5340\u53f3\u660c\u570b\u4e2d", "s_d0": 1.0, "s_d1": 1.0, "s_d2": 1.0, "s_h0": 100.0, "s_t0": 27.62, "timestamp": "2024-10-16T06:22:38Z", "device_id": "74DA38F20E28", "c_d0": "N/A", "c_d0_method": "N/A"}, {"time": "06:25:00", "SiteAddr": "\u9ad8\u96c4\u5e02\u7acb\u6843\u6e90\u570b\u6c11\u4e2d\u5b78 \u9ad8\u96c4\u5e02\u6843\u6e90\u5340\u52e4\u548c\u91cc\u5357\u6a6b\u516c\u8def\u4e09\u6bb5201\u865f", "SiteName": "\u9ad8\u96c4\u5e02\u5e02\u7acb\u6843\u6e90\u570b\u4e2d(2018)", "app": "AirBox", "area": "kaohsiung", "date": "2024-10-16", "gps_alt": 2.0, "gps_fix": 1.0, "gps_lat": 23.178, "gps_lon": 120.781, "gps_num": 9.0, "name": "\u9ad8\u96c4\u6843\u6e90\u570b\u4e2d", "s_d0": 15.0, "s_d1": 16.0, "s_d2": 9.0, "s_h0": 100.0, "s_t0": 26.5, "timestamp": "2024-10-16T06:25:00Z", "device_id": "74DA38F20E1A", "c_d0": "N/A", "c_d0_method": "N/A"}, {"time": "06:22:55", "SiteAddr": "\u9ad8\u96c4\u5e02\u7acb\u963f\u84ee\u570b\u6c11\u4e2d\u5b78 \u9ad8\u96c4\u5e02\u963f\u84ee\u5340\u963f\u84ee\u91cc\u6c11\u751f\u8def178\u865f", "SiteName": "\u9ad8\u96c4\u5e02\u5e02\u7acb\u963f\u84ee\u570b\u4e2d(2018)", "app": "AirBox", "area": "kaohsiung", "date": "2024-10-16", "gps_alt": 2.0, "gps_fix": 1.0, "gps_lat": 22.885, "gps_lon": 120.325, "gps_num": 9.0, "name": "\u9ad8\u96c4\u5e02\u7acb\u963f\u84ee\u570b\u4e2d", "s_d0": 0.0, "s_d1": 0.0, "s_d2": 0.0, "s_h0": 92.0, "s_t0": 33.5, "timestamp": "2024-10-16T06:22:55Z", "device_id": "74DA38F20E00", "c_d0": "N/A", "c_d0_method": "N/A"}, {"time": "06:22:22", "SiteAddr": "\u9ad8\u96c4\u5e02\u7acb\u6893\u5b98\u570b\u6c11\u4e2d\u5b78 \u9ad8\u96c4\u5e02\u6893\u5b98\u5340\u6893\u4fe1\u91cc17\u9130\u4e2d\u5b78\u8def71\u865f", "SiteName": "\u9ad8\u96c4\u5e02\u5e02\u7acb\u6893\u5b98\u570b\u4e2d(2018)", "app": "AirBox", "area": "kaohsiung", "date": "2024-10-16", "gps_alt": 2.0, "gps_fix": 1.0, "gps_lat": 22.762, "gps_lon": 120.263, "gps_num": 9.0, "name": "\u9ad8\u96c4\u5e02\u6893\u5b98\u5340\u6893\u5b98\u570b\u4e2d", "s_d0": 19.0, "s_d1": 20.0, "s_d2": 13.0, "s_h0": 100.0, "s_t0": 29.86, "timestamp": "2024-10-16T06:22:22Z", "device_id": "74DA38F20DFE", "c_d0": "N/A", "c_d0_method": "N/A"}, {"time": "06:24:16", "SiteAddr": "\u9ad8\u96c4\u5e02\u6960\u6893\u570b\u5c0f \u9ad8\u96c4\u5e02\u6960\u6893\u5340\u6960\u6893\u8def262\u865f", "SiteName": "\u9ad8\u96c4\u5e02\u5e02\u7acb\u6960\u6893\u570b\u5c0f(2018)", "app": "AirBox", "area": "kaohsiung", "date": "2024-10-16", "gps_alt": 2.0, "gps_fix": 1.0, "gps_lat": 22.733, "gps_lon": 120.327, "gps_num": 9.0, "name": "KH-ntps-2", "s_d0": 12.0, "s_d1": 13.0, "s_d2": 7.0, "s_h0": 100.0, "s_t0": 30.61, "timestamp": "2024-10-16T06:24:16Z", "device_id": "74DA38F20DEC", "c_d0": "N/A", "c_d0_method": "N/A"}, {"time": "06:23:14", "SiteAddr": "\u9ad8\u96c4\u5e02\u93ae\u660c\u570b\u5c0f \u9ad8\u96c4\u5e02\u524d\u93ae\u5340\u6a39\u4eba\u8def261\u865f", "SiteName": "\u9ad8\u96c4\u5e02\u5e02\u7acb\u93ae\u660c\u570b\u5c0f(2018)", "app": "AirBox", "area": "new_taipei", "date": "2024-10-16", "gps_alt": 2.0, "gps_fix": 1.0, "gps_lat": 22.59, "gps_lon": 120.317, "gps_num": 9.0, "name": "jcmps", "s_d0": 14.0, "s_d1": 15.0, "s_d2": 9.0, "s_h0": 100.0, "s_t0": 24.5, "timestamp": "2024-10-16T06:23:14Z", "device_id": "74DA38F20DE2", "c_d0": "N/A", "c_d0_method": "N/A"}, {"time": "06:23:46", "SiteAddr": "\u9ad8\u96c4\u5e02\u745e\u7965\u570b\u5c0f \u9ad8\u96c4\u5e02\u524d\u93ae\u5340\u73ed\u8d85\u8def20\u865f", "SiteName": "\u9ad8\u96c4\u5e02\u5e02\u7acb\u745e\u7965\u570b\u5c0f(2018)", "app": "AirBox", "area": "kaohsiung", "date": "2024-10-16", "gps_alt": 2.0, "gps_fix": 1.0, "gps_lat": 22.589, "gps_lon": 120.328, "gps_num": 9.0, "name": "\u9ad8\u5e02\u745e\u7965\u570b\u5c0f(2018)", "s_d0": 30.0, "s_d1": 31.0, "s_d2": 21.0, "s_h0": 100.0, "s_t0": 30.75, "timestamp": "2024-10-16T06:23:46Z", "device_id": "74DA38F20DE0", "c_d0": "N/A", "c_d0_method": "N/A"}, {"time": "06:22:32", "SiteAddr": "\u9ad8\u96c4\u5e02\u6a02\u7fa4\u570b\u5c0f \u9ad8\u96c4\u5e02\u524d\u93ae\u5340\u80b2\u6a02\u8def61\u865f", "SiteName": "\u9ad8\u96c4\u5e02\u5e02\u7acb\u6a02\u7fa4\u570b\u5c0f(2018)", "app": "AirBox", "area": "kaohsiung", "date": "2024-10-16", "gps_alt": 2.0, "gps_fix": 1.0, "gps_lat": 22.6080258, "gps_lon": 120.3229833, "gps_num": 9.0, "name": "\u6a02\u7fa4\u570b\u5c0f\u65b0", "s_d0": 0.0, "s_d1": 0.0, "s_d2": 0.0, "s_h0": 100.0, "s_t0": 29.5, "timestamp": "2024-10-16T06:22:32Z", "device_id": "74DA38F20DD0", "c_d0": "N/A", "c_d0_method": "N/A"}, {"time": "06:26:14", "SiteAddr": "\u9ad8\u96c4\u5e02\u8392\u5149\u570b\u5c0f \u9ad8\u96c4\u5e02\u6960\u6893\u5340\u5f8c\u660c\u8def842\u865f", "SiteName": "\u9ad8\u96c4\u5e02\u5e02\u7acb\u8392\u5149\u570b\u5c0f(2018)", "app": "AirBox", "area": "kaohsiung", "date": "2024-10-16", "gps_alt": 2.0, "gps_fix": 1.0, "gps_lat": 22.711, "gps_lon": 120.295, "gps_num": 9.0, "name": "\u9ad8\u96c4\u5e02\u6960\u6893\u5340\u8392\u5149\u570b\u5c0f", "s_d0": 0.0, "s_d1": 0.0, "s_d2": 0.0, "s_h0": 100.0, "s_t0": 29.0, "timestamp": "2024-10-16T06:26:14Z", "device_id": "74DA38F20DC0", "c_d0": "N/A", "c_d0_method": "N/A"},